NAME,LONGITUDE,LATITUDE,NEIGHBORHOOD_NAME,COUNTY_NAME
Stad Parkı,28.9143553940026,40.9946468879565,TELSİZ,ZEYTİNBURNU
Kadriye Gök Parkı,28.8998723752388,40.9900613788238,NURİPAŞA,ZEYTİNBURNU
Yayla Sokak Parkı,28.9250815948977,41.0811977071569,AKŞEMSETTİN,EYÜPSULTAN
Tutya Parkı,28.9373598721487,41.00975266887,SEYYİD ÖMER,FATİH
Çukurbostan Parkı,28.9336379793672,41.011340820794,ŞEHREMİNİ,FATİH
Çapa Çocuk Parkı,28.9336040264787,41.0138532564139,ŞEHREMİNİ,FATİH
Park,28.8037979083769,41.0954297731247,BAŞAK,BAŞAKŞEHİR
Park,28.7913835567888,40.9874175106284,ŞENLİKKÖY,BAKIRKÖY
Park,28.7841697497332,41.0554994086696,ATAKENT,KÜÇÜKÇEKMECE
Park,28.9754650136279,41.0351371958467,KAMER HATUN,BEYOĞLU
Ayaz Parkı,28.9912138901057,41.0860865548388,ŞİRİNTEPE,KAĞITHANE
Park,28.7738720197189,40.9943864517645,YENİ MAHALLE,KÜÇÜKÇEKMECE
Yeşil Alan,29.0093476020012,41.0884303558993,KONAKLAR,BEŞİKTAŞ
Park,28.9034400530239,41.0739916192152,YENİ MAHALLE,GAZİOSMANPAŞA
Çocuk Parkı,28.7557053459785,41.080961309844,GÜVERCİNTEPE,BAŞAKŞEHİR
Çocuk Parkı,28.8754353155221,40.9874489229361,KARTALTEPE,BAKIRKÖY
Ilgaz Parkı,29.0706818771322,40.9963666821028,ÜNALAN,ÜSKÜDAR
Park,29.0751486658618,41.0282793974963,KISIKLI,ÜSKÜDAR
Park,29.1185240442713,40.9867646862414,KÜÇÜKBAKKALKÖY,ATAŞEHİR
Maltepe Gülsuyu Parkı,29.1549483746475,40.9287060454991,GÜLSUYU,MALTEPE
Park,28.7931958728524,41.0385091474059,HALKALI MERKEZ,KÜÇÜKÇEKMECE
Çocuk Parkı,28.7891128582211,41.0069887520529,FEVZİ ÇAKMAK,KÜÇÜKÇEKMECE
Küçükçekmece Belediyesi Anadolu Meyve Bahçesi,28.789455100222,41.0463221835846,ATAKENT,KÜÇÜKÇEKMECE
Park,28.8008647746252,41.0445738129807,ATAKENT,KÜÇÜKÇEKMECE
Park,29.1274457646521,40.9237652635055,FEYZULLAH,MALTEPE
Park,29.0906891587528,41.0281175774512,ATATÜRK,ÜMRANİYE
Sancaktepe Meydan Parkı,29.2294881060675,40.9925560463719,ABDURRAHMANGAZİ,SANCAKTEPE
Remzi Öztürk Parkı,29.1257810003741,41.009547987813,ÇAMLIK,ÜMRANİYE
Park,29.0883953456571,41.0187647366429,NAMIK KEMAL,ÜMRANİYE
Park,28.0529754662696,41.0522106015782,GÜMÜŞYAKA,SİLİVRİ
Sultan Mehmet Parkı,28.7034785795382,41.2247790806014,FATİH,ARNAVUTKÖY
Park,29.0391983802259,41.01439391108,BARBAROS,ÜSKÜDAR
Bella Park,28.641234253193,41.0166893592286,BARBAROS HAYRETTİN PAŞA,ESENYURT
Park,29.0359284078732,41.0190187201184,ALTUNİZADE,ÜSKÜDAR
Baba Kenan Parkı,29.0413572713414,41.179599479543,MADEN,SARIYER
Park,29.2097396452514,40.9270134138353,UĞUR MUMCU,KARTAL
Park,29.2261238393159,40.9187829470567,YAKACIK ÇARŞI,KARTAL
Bilgin Sokak Parkı,29.2050011342335,40.920551710751,GÜMÜŞPINAR,KARTAL
Çocuk Parkı,28.9123409899422,41.0835694692417,KAZIM KARABEKİR,GAZİOSMANPAŞA
Park,29.1163714546129,40.9843607579661,KÜÇÜKBAKKALKÖY,ATAŞEHİR
Park,29.0860036675805,41.0022640793221,ESATPAŞA,ATAŞEHİR
Park,29.128948717914,40.9889227444084,ATATÜRK,ATAŞEHİR
Park,29.1302770219082,40.9294846389963,ALTAYÇEŞME,MALTEPE
Park,29.1428851741602,40.942125855371,GİRNE,MALTEPE
Park,28.8437538605454,41.046961505869,DEMİRKAPI,BAĞCILAR
Bağcılar Belediyesi Kızılcık Bahçesi,28.8664083648739,41.030643838403,MERKEZ,BAĞCILAR
Kartanesi Parkı,29.2174396621113,41.0140205090544,İNÖNÜ,SANCAKTEPE
Yunus Emre Parkı,29.0921700860932,41.0134035559162,ESENEVLER,ÜMRANİYE
Park,29.0393622775069,41.1228386388721,DARÜŞŞAFAKA,SARIYER
Park,29.194840962103,40.9198557276684,SOĞANLIK YENİ,KARTAL
Park,29.2666922829223,40.9028178471083,YAYALAR,PENDİK
Park,28.9318310049143,41.0156851910337,ŞEHREMİNİ,FATİH
Aykan Parkı,28.798494165236,41.0340290678947,HALKALI MERKEZ,KÜÇÜKÇEKMECE
Günbattı Parkı,29.0742934737157,41.0342013492619,FERAH,ÜSKÜDAR
Park,28.6821333250911,41.0211573051609,ZAFER,ESENYURT
Akasya Koru Evleri Parkı,29.054902328107,41.003266117274,ACIBADEM,ÜSKÜDAR
Park,29.1293863310668,40.9894904068647,ATATÜRK,ATAŞEHİR
Park,29.0775345988639,41.0028808560138,FETİH,ATAŞEHİR
Park,29.1530627577934,40.9902148039393,MEVLANA,ATAŞEHİR
Park,29.1541431223295,40.9911763936222,MEVLANA,ATAŞEHİR
Park,29.0782082717076,41.0019717707047,FETİH,ATAŞEHİR
Çocuk Parkı,29.1146636856644,40.9831738123768,KÜÇÜKBAKKALKÖY,ATAŞEHİR
Park,29.1201335665568,40.9548007702083,AYDINEVLER,MALTEPE
Park,28.9157762596939,41.0015302664482,KAZLIÇEŞME,ZEYTİNBURNU
Behçet Köseoğlu Parkı,29.1776467135068,41.0180314306768,NECİP FAZIL,ÜMRANİYE
Park,29.102680004036,41.0304148301345,İNKILAP,ÜMRANİYE
Fatih Sultan Mehmet Mahallesi Muhtarlığı Parkı,29.123693208022,41.0257567487832,FATİH SULTAN MEHMET,ÜMRANİYE
Park,29.1651748993541,41.0152800824715,NECİP FAZIL,ÜMRANİYE
İBB Çay Bahçesi ve Parkı,28.2520705296466,41.0781668187239,YENİ,SİLİVRİ
Park,29.0709088218854,40.9797400563715,GÖZTEPE,KADIKÖY
Yunus Emre Parkı,29.2179616823375,40.9293495713322,UĞUR MUMCU,KARTAL
Park,29.0927505468185,40.9685819909593,KOZYATAĞI,KADIKÖY
Göztepe Tabiat Parkı,29.1186578231558,41.0944892167356,FATİH,BEYKOZ
Karakoyunlu Parkı,28.9378674542343,41.0145829210427,MOLLA GÜRANİ,FATİH
Yeni Camii Parkı,28.9715422325079,41.0164615628988,RÜSTEMPAŞA,FATİH
Büyük Saray Meydanı Parkı,28.9289144051292,41.0149172561606,ŞEHREMİNİ,FATİH
Koyunbaba Parkı,28.9441544722759,41.0213429699781,AKŞEMSETTİN,FATİH
Köroğlu Parkı,28.9471730392888,41.0296725449587,BALAT,FATİH
Kadıçeşme Parkı,28.9517621733132,41.0221863427661,ZEYREK,FATİH
Şehit Piyade Asteğmen Furkan Işık Parkı,28.9330184662102,41.0097006780632,SEYYİD ÖMER,FATİH
Molla Aşkı Parkı,28.9436131587459,41.0350250280877,AYVANSARAY,FATİH
Hasan Baba Parkı ve Türbesi,28.9554437999758,41.0210984770055,CİBALİ,FATİH
Kurusebil Semt Parkı,28.9329059915737,41.0060956892048,CERRAHPAŞA,FATİH
Akşemsettin Parkı,28.9405833592034,41.0195138493295,AKŞEMSETTİN,FATİH
Abdullah Tukay Parkı,28.9393369949541,41.016457279985,MOLLA GÜRANİ,FATİH
Fatih Parkı,28.9182660728326,41.0349140558981,ORTA,BAYRAMPAŞA
Uğur Mumcu Parkı,28.9145999783068,41.0312246022557,ORTA,BAYRAMPAŞA
Park,28.9454388070083,41.0128474329642,MOLLA GÜRANİ,FATİH
Şehit Cehar Dudayev Parkı,28.8847334513324,41.072514767428,CEVATPAŞA,BAYRAMPAŞA
Deniz Bingöller Parkı,28.8932145138233,40.9870505871935,SÜMER,ZEYTİNBURNU
Çiçek Parkı,28.9130145958151,41.0039859730025,TELSİZ,ZEYTİNBURNU
Ramazan Efendi Parkı,28.9320459609585,41.0052621456038,SİLİVRİKAPI,FATİH
Kantarcılar Camii Yanı Parkı,28.9655856183304,41.0187931091745,SARIDEMİR,FATİH
Keyci Hatun Parkı,28.9427981350353,41.0078067374142,CERRAHPAŞA,FATİH
Selçuk Sultan Parkı,28.9447118947273,41.0116411024386,MOLLA GÜRANİ,FATİH
Dr. Ahmet Zeki Velidi Togan Parkı,28.96142044062,41.0105655979425,BALABANAĞA,FATİH
Bayrampaşa Şehir Parkı,28.8875370810967,41.0618812990571,YILDIRIM,BAYRAMPAŞA
Şişhane Parkı,28.9694066018159,41.0282407157314,BEDRETTİN,BEYOĞLU
Sütlüce-2 Parkı,28.9465651142474,41.0547189141773,SÜTLÜCE,BEYOĞLU
Nilufer Parkı,28.9483189470267,41.0631195062892,ÖRNEKTEPE,BEYOĞLU
Okmeydanı Semt Konağı Parkı,28.9605670861276,41.0493566190137,PİYALEPAŞA,BEYOĞLU
Sururi Parkı,28.9715219143476,41.0373412439298,SURURİ MEHMET EFENDİ,BEYOĞLU
Park,28.9457576982659,41.0378789928726,AYVANSARAY,FATİH
Silivrikapı Parkı,28.9245859665084,41.0069374363967,MEVLANAKAPI,FATİH
Nadir Nadi Parkı,28.9356132746468,41.0011486801045,KOCA MUSTAFAPAŞA,FATİH
Mehmet Akif Ersoy Parkı,28.9321630566964,40.9969973142708,KOCA MUSTAFAPAŞA,FATİH
Mehmet Ağa Parkı,28.9448264703578,41.0269856397792,BALAT,FATİH
Ferit Güleryüz Parkı,28.9742405574164,41.0412833091615,HACIAHMET,BEYOĞLU
Kayalı Bahçe Parkı,28.7892434811942,40.97291109163,BASINKÖY,BAKIRKÖY
Çıksalın Kudüm Sokağı Parkı,28.9487551838782,41.0473988144483,HALICIOĞLU,BEYOĞLU
Halıcıoğlu (Abdüselam) Parkı,28.9448766620554,41.0457605552084,HALICIOĞLU,BEYOĞLU
Aynalı Kavak Semt Konağı Parkı,28.9556858530132,41.0391945925543,KEÇECİ PİRİ,BEYOĞLU
Fındıklı Parkı,28.9901291265539,41.0314514855312,ÖMER AVNİ,BEYOĞLU
2403 Sok. Yeşil Alan,28.8829768562414,41.0984228487787,ESENTEPE,SULTANGAZİ
Park,29.2920464889148,40.8170019498098,POSTANE,TUZLA
Dr. Sadık Ahmet Parkı,28.6080989505695,41.0042786931588,PINARTEPE,BÜYÜKÇEKMECE
Ragıp Gümüşpala Cad. Yeşil Alan,28.964215786541,41.0195921325426,YAVUZ SİNAN,FATİH
Park,28.0254482598263,41.0967956255287,İSMETPAŞA,SİLİVRİ
Gümüşyaka Büyük Bahçe Parkı,28.0513787027016,41.0477038074483,GÜMÜŞYAKA,SİLİVRİ
Krallık - Millet Parkı,28.0448422192414,41.047844107246,GÜMÜŞYAKA,SİLİVRİ
Karanfil Parkı,28.8839151809625,41.0985506484438,ESENTEPE,SULTANGAZİ
Kumluk Parkı,28.9671301469381,41.003678296498,ŞEHSUVAR BEY,FATİH
Küçükmustafa Paşa Parkı,28.9577639473927,41.0255918615726,YAVUZ SULTAN SELİM,FATİH
Kuzguncuk Parkı,29.0334421571836,41.0391709797061,KUZGUNCUK,ÜSKÜDAR
Şehit Yıldırım Özbir Parkı,28.8987190202328,41.0327962380007,TERAZİDERE,BAYRAMPAŞA
Terazidere Parkı,28.8986428778319,41.0323251041052,TERAZİDERE,BAYRAMPAŞA
60. Yıl Parkı,28.9034633755808,41.0327115552888,TERAZİDERE,BAYRAMPAŞA
Park,28.901683937939,41.0171668700139,MALTEPE,ZEYTİNBURNU
Berrak Parkı,29.1266012151532,40.9995232365773,TATLISU,ÜMRANİYE
Kaşif Kalkavan Parkı,29.140391916854,41.0014096726248,TATLISU,ÜMRANİYE
Simge Parkı,29.226087670288,40.8847341193475,YENİ,PENDİK
Şehit Bülent Kocabıyık Parkı,29.0870142182633,41.1073855831082,ÇUBUKLU,BEYKOZ
Oklalı Köyü Park,28.4777541267706,41.2210086983325,OKLALI,ÇATALCA
Güvercin-3 Parkı,29.0203828554589,41.0786321500617,LEVENT,BEŞİKTAŞ
Çalıkuşu Parkı,29.0178804634946,41.0760037791944,LEVENT,BEŞİKTAŞ
Çınar Cad. Parkı,28.8128653206669,41.0155021575987,YENİBOSNA MERKEZ,BAHÇELİEVLER
Aziziye Parkı,29.0586154763225,41.0289415793985,BURHANİYE,ÜSKÜDAR
İzzetbey Parkı,29.080397342559,41.0215056252968,BULGURLU,ÜSKÜDAR
Mimoza Parkı,29.0760020664754,41.0151165400297,BULGURLU,ÜSKÜDAR
Erdem Parkı,29.0492502165467,41.0099033443942,ACIBADEM,ÜSKÜDAR
Toygar Hamza Parkı,29.0214892776865,41.0236241072775,MİMAR SİNAN,ÜSKÜDAR
Park,29.0100701361005,41.0221414845988,AZİZ MAHMUT HÜDAYİ,ÜSKÜDAR
Coşkun Okul Parkı,29.0631652374122,41.0268603537316,KISIKLI,ÜSKÜDAR
Aydos Parkı,29.2559327526868,40.9162487418534,ERTUĞRUL GAZİ,PENDİK
Kazlıçeşme Sahil Parkı,28.9117712458425,40.9865659844052,KAZLIÇEŞME,ZEYTİNBURNU
Seyit Nizam Parkı,28.9089918072154,41.0053403994071,SEYİTNİZAM,ZEYTİNBURNU
H. Cevher  Karaer- H. Sezer Şehitler Parkı,28.9295468724683,41.0086350661627,SEYYİD ÖMER,FATİH
Meyveci Parkı,28.9287534343404,41.0045689639641,SİLİVRİKAPI,FATİH
Kırım Parkı,28.924427018119,41.0164988987549,MEVLANAKAPI,FATİH
Seyid Ömer Havuzlu (1737 Ada) Park,28.9339433228727,41.0081960256902,SEYYİD ÖMER,FATİH
Kocamustafapaşa Parkı,28.9301107976028,41.0038716227124,SİLİVRİKAPI,FATİH
Özkaymaz Parkı,28.8975070883823,41.0614607788359,YILDIRIM,BAYRAMPAŞA
Perşembe Pazarı Parkı,28.9710186782551,41.022129052206,ARAP CAMİ,BEYOĞLU
Dereiçi Parkı,28.9517155061691,41.0541086761649,ÖRNEKTEPE,BEYOĞLU
Yeşil Alan,28.8436938100304,41.0168154196957,KOCASİNAN MERKEZ,BAHÇELİEVLER
Karaca Sok. Çocuk Parkı,28.8995382781233,41.0591504066193,KARTALTEPE,BAYRAMPAŞA
Pirimehmetpaşa Parkı,28.947569630849,41.0432506083553,PİRİPAŞA,BEYOĞLU
Şehit Er Ramazan Paşa Göncü Parkı,28.8415658946207,40.9898495270761,ATAKÖY 7-8-9-10. KISIM,BAKIRKÖY
Kadı Mehmet Parkı,28.9628680883841,41.0343110990878,KADIMEHMET EFENDİ,BEYOĞLU
Ağaçlaraltı Parkı,28.9638249906955,41.0449233312036,KAPTANPAŞA,BEYOĞLU
Örnektepe Parkı,28.9550475647157,41.0539666222089,ÖRNEKTEPE,BEYOĞLU
Ata Garajı Parkı,28.9182755822572,41.000896431652,KAZLIÇEŞME,ZEYTİNBURNU
Şehit Binbaşı Ömer Aktuğ Parkı,29.1563808720086,40.990823262527,MEVLANA,ATAŞEHİR
Yaren Parkı,29.1367648176739,40.9949963698233,YENİŞEHİR,ATAŞEHİR
Şehit Er Girol Alpago Parkı,28.8213363172496,41.0117969736671,YENİBOSNA MERKEZ,BAHÇELİEVLER
Kadirova Parkı,29.3288368334866,41.0853091182202,ÖMERLİ,ÇEKMEKÖY
1414 Sok. Parkı,28.8955118362697,41.1038864947419,GAZİ,SULTANGAZİ
Sirkeci Tramvay Yanı Yeşil Alan,28.9767386089658,41.0142617300763,HOCAPAŞA,FATİH
Filiz Parkı,29.315252463539,40.82196602211,CAMİ,TUZLA
Kamilya Parkı,29.07485086701,41.0339056934709,FERAH,ÜSKÜDAR
Nene Hatun Parkı,29.2306634406756,41.0168197789758,AYDINLAR,ÇEKMEKÖY
Barış Manço Parkı,29.2268267917741,41.0212378240227,CUMHURİYET,ÇEKMEKÖY
Mehmet Akif Ersoy Parkı,28.8934738806877,41.1760653451741,GÖKTÜRK MERKEZ,EYÜPSULTAN
Fen Sok. Parkı,29.2582826758509,40.892650640337,VELİBABA,PENDİK
Tunuslu Mahmut Paşa Parkı,29.0526509680218,41.0255159872778,BURHANİYE,ÜSKÜDAR
Çamlık Parkı,29.0728320542298,41.0190967859615,BULGURLU,ÜSKÜDAR
Yıldırım Beyazıd Parkı,29.0743116000147,41.0517273925568,GÜZELTEPE,ÜSKÜDAR
Küplüce Parkı,29.0509581919577,41.036485837348,KÜPLÜCE,ÜSKÜDAR
Gülseve Parkı,29.0313354559773,41.0236412502715,MURATREİS,ÜSKÜDAR
Şehitler Parkı,29.0524003868981,41.0170537462846,ALTUNİZADE,ÜSKÜDAR
Aydınlar Parkı,29.2280796326054,41.01864997423,AYDINLAR,ÇEKMEKÖY
Şehit Binbaşı Ömer Aktuğ Parkı,29.1756000642342,41.0346686987721,MERKEZ,ÇEKMEKÖY
Esenyalı Çocuk Parkı,29.293823605297,40.8587098728286,ESENYALI,PENDİK
Adnan Menderes Parkı,28.8708456304034,41.0887652365542,50. YIL,SULTANGAZİ
Çocuk Parkı,28.9091450068438,41.2542617222214,ÇİFTALAN,EYÜPSULTAN
Oğuzhan Sok. Parkı,28.831542557654,41.005824466399,FEVZİ ÇAKMAK,BAHÇELİEVLER
Park,29.1586753155445,40.9020312233849,ORHANTEPE,KARTAL
Şehit Mehmet Çetinkaya Parkı,28.9465173109931,41.0120069446097,MOLLA GÜRANİ,FATİH
Haşim İşcan Parkı,28.9354106310143,41.0236236108618,KARAGÜMRÜK,FATİH
Emre Belezoğlu Altı Parkı,28.9301984629099,40.9957846615505,KOCA MUSTAFAPAŞA,FATİH
Nakilbent Parkı,28.9747459298113,41.0042543965303,KÜÇÜK AYASOFYA,FATİH
Kalburcu Mehmet Parkı,28.9260727131883,41.017238167243,MEVLANAKAPI,FATİH
Veysel Satık Parkı,28.9562404485394,41.0214914265114,CİBALİ,FATİH
Oruçgazi Parkı,28.9526951339037,41.0130457327085,İSKENDERPAŞA,FATİH
Beyceğiz Parkı,28.9443828323662,41.0243071615506,ATİKALİ,FATİH
Sultanahmet Havuzlu Park,28.9783758576765,41.0071506059601,CANKURTARAN,FATİH
Aşık Paşa Parkı,28.9558643444564,41.0239754942185,YAVUZ SULTAN SELİM,FATİH
23 Nisan Çocuk Parkı,28.97330039524,41.0039405374539,KÜÇÜK AYASOFYA,FATİH
Kurtağa Parkı ve Spor Alanı,28.9397562987873,41.0284679600867,DERVİŞ ALİ,FATİH
Kariye Parkı,28.9382482983796,41.0311708211868,DERVİŞ ALİ,FATİH
Kurtağa Çeşme Parkı,28.9398373855138,41.0281168492728,DERVİŞ ALİ,FATİH
Hurşit Makinacı Parkı,28.9155463494705,41.0382536294226,YENİDOĞAN,BAYRAMPAŞA
100. Yıl Parkı,28.8880121911189,41.0695062568543,YILDIRIM,BAYRAMPAŞA
Sancak Parkı,28.890815487973,41.0622390218445,YILDIRIM,BAYRAMPAŞA
Dr. Sadık Ahmet Parkı,28.8890070980085,41.0637303489705,YILDIRIM,BAYRAMPAŞA
Sabri Akpınar Parkı,28.9088083714183,41.0438755416197,İSMET PAŞA,BAYRAMPAŞA
Uzun Yusuf Parkı,28.9265530688804,41.0077734732825,SEYYİD ÖMER,FATİH
Kariye Şehir Parkı,28.9396918359503,41.0309462042877,DERVİŞ ALİ,FATİH
Dr. Nihat Ergin Parkı,28.8989802344432,41.0568787504593,KARTALTEPE,BAYRAMPAŞA
Hülya Sok. Çocuk Parkı,28.8988027271246,41.0555805164768,KARTALTEPE,BAYRAMPAŞA
Dökümcüler Parkı,28.908264370269,41.0478967723408,MURATPAŞA,BAYRAMPAŞA
Hudut Parkı,28.8889862777825,41.0632425590255,YILDIRIM,BAYRAMPAŞA
Park,29.2180924063071,41.019761617627,KİRAZLIDERE,ÇEKMEKÖY
Fevzi Çakmak Parkı,29.2168679521047,41.0199594026775,KİRAZLIDERE,ÇEKMEKÖY
Bademlik Parkı,28.9480871716599,41.0527389965315,SÜTLÜCE,BEYOĞLU
Sefa Meydanı Parkı,28.9770522218012,41.0434868492372,YENİŞEHİR,BEYOĞLU
Gümüşsuyu Parkı,28.9875825083886,41.0353174063103,GÜMÜŞSUYU,BEYOĞLU
Tophane Parkı,28.9797777504764,41.0269988100186,HACIMİMİ,BEYOĞLU
Çıksalın Sok. Altı Parkı,28.9504637952942,41.0503680625024,HALICIOĞLU,BEYOĞLU
Attila İlhan Çocuk Parkı,28.8591131417455,40.9779793758198,ATAKÖY 2-5-6. KISIM,BAKIRKÖY
Ataköy 3. Kısım Çocuk Parkı,28.8630081224054,40.9823258369298,ATAKÖY 3-4-11. KISIM,BAKIRKÖY
Barlas Küntay Parkı,28.8539833619677,40.9828888178256,ATAKÖY 2-5-6. KISIM,BAKIRKÖY
Ahmet Sezgin Parkı,28.8395017130738,40.9869771216572,ATAKÖY 7-8-9-10. KISIM,BAKIRKÖY
Acısu Parkı,28.9568398518279,41.0411689699729,KEÇECİ PİRİ,BEYOĞLU
Aynalıkavak Parkı,28.9560740610927,41.0388763397463,KEÇECİ PİRİ,BEYOĞLU
Piri Mehmetpaşa Parkı,28.950491927825,41.0418030525732,PİRİPAŞA,BEYOĞLU
1272/2. Sok. Parkı,28.9102632469184,41.1002094083835,ZÜBEYDE HANIM,SULTANGAZİ
Şehit Sedat Karaçor Parkı,28.8623937257346,41.0650967042324,TURGUT REİS,ESENLER
Cumhuriyet Meydanı,28.5833946297256,41.0193419086146,FATİH,BÜYÜKÇEKMECE
İBB Hacı Hüsrev Parkı,28.9409137408243,41.0398618248474,DEFTERDAR,EYÜPSULTAN
Küçüksu Mahalle Muhtarlığı Yanı Parkı,29.065628021304,41.0694294919112,KÜÇÜKSU,ÜSKÜDAR
Seyfi Ali Yıldız Parkı,29.0749430635266,41.0579788357942,BAHÇELİEVLER,ÜSKÜDAR
Kiraz Bahçesi,28.8364459043414,41.03382538809,KİRAZLI,BAĞCILAR
Üzüm Bağı,28.8538207648307,41.0385061683511,SANCAKTEPE,BAĞCILAR
Cebeci Şehir Parkı,28.8754296576218,41.1036382810009,UĞUR MUMCU,SULTANGAZİ
Meşe Parkı,29.2416436270512,41.0497982015285,ÇATALMEŞE,ÇEKMEKÖY
Karaçayır Parkı,29.2322857657233,41.0246565189833,SOĞUKPINAR,ÇEKMEKÖY
Sarı Çiçek Parkı,29.2212168625612,41.0210416007424,KİRAZLIDERE,ÇEKMEKÖY
Atatürk Parkı,28.4573585622303,41.1427994409175,KALEİÇİ,ÇATALCA
Mustafa Dönmez Parkı,28.8549757361861,41.0178724205575,CUMHURİYET,BAHÇELİEVLER
Yeni Çamlıca Parkı,29.056534588527,41.0294476732537,BURHANİYE,ÜSKÜDAR
Bağlariçi Parkı,29.0820610239245,41.0216791325474,BULGURLU,ÜSKÜDAR
Turgut Reis Parkı,29.0852729725428,41.0170661417374,BULGURLU,ÜSKÜDAR
M. Emim Yıldırım Parkı,29.0357666014115,41.01722440211,BARBAROS,ÜSKÜDAR
Divitçiler Parkı,29.0249272561156,41.0166147532979,VALİDE-İ ATİK,ÜSKÜDAR
Kısıklı Parkı,29.0748156295593,41.025934433081,KISIKLI,ÜSKÜDAR
Altunizade Parkı,29.0485809305765,41.0184599120042,ALTUNİZADE,ÜSKÜDAR
Necati Alkan Parkı,29.2315638258568,41.0204256078043,AYDINLAR,ÇEKMEKÖY
Yılmaz Parkı,29.2305651336619,41.0246740520097,SOĞUKPINAR,ÇEKMEKÖY
Alman Deresi Yürüyüş Parkı,29.0292321138042,41.0876301187959,AKAT,BEŞİKTAŞ
Sohbet Parkı,28.9126885557793,41.0971873152809,75. YIL,SULTANGAZİ
Şehit Nejat Şahin Parkı,28.869395065698,41.0947646873936,50. YIL,SULTANGAZİ
Şairler Sofası,29.000419691674,41.0419649753743,VİŞNEZADE,BEŞİKTAŞ
Vişnezade Camii Parkı,28.9989023726818,41.0418449277907,VİŞNEZADE,BEŞİKTAŞ
Atatürk Gençlik Parkı,28.2878871497431,41.0668339399759,CUMHURİYET,SİLİVRİ
Barbaros Parkı,29.0065848499062,41.0415824714774,SİNANPAŞA,BEŞİKTAŞ
Molla Aşkı Kültür Parkı,28.9432649377857,41.0338016582333,AYVANSARAY,FATİH
Esenyurt Belediyesi Yürüyüş Parkı,28.655162957892,41.0169618402406,CUMHURİYET,ESENYURT
Park,28.8841213156206,41.0123729524893,MEHMET NESİH ÖZMEN,GÜNGÖREN
Park,29.1227405916665,40.9863271709354,KÜÇÜKBAKKALKÖY,ATAŞEHİR
Şehit Çaner Çalışkan Parkı,29.2140845438103,40.9215844535249,GÜMÜŞPINAR,KARTAL
Şehit Turan Damgacı Parkı,29.2139659471001,40.930611331247,UĞUR MUMCU,KARTAL
Park,29.214150589986,41.0182689882024,KİRAZLIDERE,ÇEKMEKÖY
Farabi Parkı,29.1806451340585,41.0332155439061,MİMAR SİNAN,ÇEKMEKÖY
Keskin Parkı,29.1823929015417,41.0219773486635,MEHMET AKİF,ÇEKMEKÖY
İbn-i Sina Parkı,29.1875410711584,41.0165534385439,MEHMET AKİF,ÇEKMEKÖY
Kemerdere Parkı,29.1786704437018,41.0234927155002,MEHMET AKİF,ÇEKMEKÖY
Ord. Prof. Zeki Velidi Toğan Parkı,29.1777986157581,41.0248994516064,MİMAR SİNAN,ÇEKMEKÖY
Orman Gülü Parkı,29.345870553004,41.0954727769021,ÖMERLİ,ÇEKMEKÖY
Kumbaba Parkı,29.5807821272152,41.1665752183177,KUMBABA,ŞİLE
Veysel Karani Parkı-2,28.9143290367133,41.0688605453095,BAĞLARBAŞI,GAZİOSMANPAŞA
Açık Spor Alanı Çocuk Parkı,28.6732829450661,40.9977638183043,YAKUPLU,BEYLİKDÜZÜ
Tenzile Erdoğan Parkı,29.2639580608937,40.8921583126807,ESENLER,PENDİK
Hüseyin Ersu Parkı,28.8466770413533,41.1137083797741,MALKOÇOĞLU,SULTANGAZİ
Servi Parkı,28.9095825209798,41.0995870664872,ZÜBEYDE HANIM,SULTANGAZİ
Serçe Parkı,29.2115793043351,40.9293295894362,UĞUR MUMCU,KARTAL
Esenyurt Anaokulu ve Parkı,28.6750504551243,41.0391619190545,BAĞLARÇEŞME,ESENYURT
Kanarya Parkı,28.9160644719998,41.1571620264557,MİMAR SİNAN,EYÜPSULTAN
Erdemliler Parkı,28.9244008269712,41.0897355769425,AKŞEMSETTİN,EYÜPSULTAN
Barbaros Hayrettin Parkı,29.1600755135378,41.0172676508835,AŞAĞI DUDULLU,ÜMRANİYE
5 Nolu Park,28.6998641594441,41.0689019743889,BAHÇEŞEHİR 1. KISIM,BAŞAKŞEHİR
Yaşar Ekici Parkı,29.2251105984629,40.902533811772,CUMHURİYET,KARTAL
Gamze Sok. Parkı,28.927560909347,41.071771162303,KARADOLAP,EYÜPSULTAN
Tepeköy Parkı,29.1299597622039,40.8680950952115,NİZAM,ADALAR
İlhan Karademir Parkı,29.0911345236034,41.1549333604429,TOKATKÖY,BEYKOZ
Akşemsettin Parkı,28.7075960666304,41.1820261955564,HARAÇÇI,ARNAVUTKÖY
Yunus Emre Parkı,29.1609391090896,41.0324320124054,HUZUR,ÜMRANİYE
Onur Parkı,29.299585790897,40.8380949059095,EVLİYA ÇELEBİ,TUZLA
Hayat Parkı,29.3155205939086,40.8278185190689,İSTASYON,TUZLA
Yolal Sok. Parkı,29.0160384304071,41.0844934140601,LEVENT,BEŞİKTAŞ
Arif Dağlar Parkı,29.1791478240844,40.8992910803436,PETROL İŞ,KARTAL
Kızılay Bulvarı Parkı,29.1828114816771,40.8945314974124,PETROL İŞ,KARTAL
Ayten Sok. Parkı,28.9207599729545,41.0467579280594,DÜĞMECİLER,EYÜPSULTAN
Mimar Sinan Parkı,29.2647077273606,40.9868338282659,BATTALGAZİ,SULTANBEYLİ
Selçukhan Parkı,29.2790607773649,40.9838694025879,BATTALGAZİ,SULTANBEYLİ
Martı Evleri Parkı,28.4609563332014,41.1461622737901,KALEİÇİ,ÇATALCA
Manolya Sok. Parkı,29.2644164258247,40.9616263602118,MEHMET AKİF,SULTANBEYLİ
Dedekorkut Parkı,28.9247646208949,41.0386686299481,TOPÇULAR,EYÜPSULTAN
Fevzi Çakmak Deprem Parkı,29.2617009429097,40.8902347985555,FEVZİ ÇAKMAK,PENDİK
Öz Alibeyköy Parkı,28.9391635893291,41.0757944865664,KARADOLAP,EYÜPSULTAN
İBB Tekke Parkı,28.9421428120041,41.0566206614997,MERKEZ,EYÜPSULTAN
İBB İdris Bitlis Parkı,28.9333335402552,41.0565920299744,MERKEZ,EYÜPSULTAN
Park,29.1914653933265,41.1525095748599,MAHMUTŞEVKETPAŞA,BEYKOZ
Ergül Sok. Parkı,29.089961736644,41.0668142530626,YENİ MAHALLE,BEYKOZ
Sümbül Sok.-1 Parkı,29.0172434791651,41.0851737139249,LEVENT,BEŞİKTAŞ
Geyikli Parkı,29.0156011069041,41.0775121029063,LEVENT,BEŞİKTAŞ
Cumhuriyet Parkı,29.1282066580364,40.9483073607066,AYDINEVLER,MALTEPE
Efraim Oğlu Mustafa Böbçe Parkı,28.059682243523,41.2352503310811,BÜYÜK ÇAVUŞLU,SİLİVRİ
Şehit Polis Kamil Genç Parkı,29.0946623013353,41.140748295807,MERKEZ,BEYKOZ
Safiye Çıkrıkçıoğlu Camii Parkı,29.2580630625883,40.9706125616426,ABDURRAHMANGAZİ,SULTANBEYLİ
Derya Parkı,29.2736167219159,40.9740688759241,AHMET YESEVİ,SULTANBEYLİ
Derviş Ali - Hesna Ceylan Semt Polikliniği Parkı,29.2739867264654,40.9726976173286,AHMET YESEVİ,SULTANBEYLİ
Nursel Poyraz Parkı,28.4514118884619,41.1485066380926,KALEİÇİ,ÇATALCA
Sait Faik Abasıyanık Çocuk Parkı,29.0693468264735,40.8814321328392,BURGAZADA,ADALAR
Park,29.1342197555817,40.8746429848875,MADEN,ADALAR
Veli Baba Parkı,29.2569471981439,40.9066324051868,VELİBABA,PENDİK
Şeyh Edebali Parkı,29.2601757388512,40.8745684518149,KAYNARCA,PENDİK
Manolya Parkı,29.093648281335,41.0346989695872,ELMALIKENT,ÜMRANİYE
Yakamoz Parkı,29.1670705585308,41.0093956352411,ESENŞEHİR,ÜMRANİYE
Fatih Sultan Mehmet Parkı,29.1520209712766,40.9963260332734,ŞERİFALİ,ÜMRANİYE
Aşık Mahsun Parkı,29.191365324962,40.9985075773551,ESENKENT,ÜMRANİYE
Oruç Reis Parkı,29.1611048712865,41.0237825928701,HUZUR,ÜMRANİYE
Park,29.097704853217,41.0297192906477,ATATÜRK,ÜMRANİYE
Park,28.234353263572,41.1524836811499,FENER,SİLİVRİ
Doğa Parkı,29.1943008259585,41.0274029145051,HAMİDİYE,ÇEKMEKÖY
Üsküdar Parkı,29.2396423647909,41.0481740179688,ALEMDAĞ,ÇEKMEKÖY
Necip Fazıl Kısakürek Parkı,29.2405967284394,41.0346573448355,EKŞİOĞLU,ÇEKMEKÖY
Balibey Parkı,29.6132976073562,41.1763055100779,HACI KASIM,ŞİLE
Çeşmeli Park,29.606462606814,41.1685050308612,ÇAVUŞ,ŞİLE
Park,28.0132776093015,41.0976008148025,İSMETPAŞA,SİLİVRİ
Park,28.0171393874661,41.0954924451823,İSMETPAŞA,SİLİVRİ
Kazım Karabekir Parkı,28.909785819536,41.0992119066925,ZÜBEYDE HANIM,SULTANGAZİ
Esentepe Parkı,28.8832049413424,41.0989026821136,ESENTEPE,SULTANGAZİ
Balıkçıbakkal Parkı,28.9301269940749,41.0511814921988,MERKEZ,EYÜPSULTAN
Kıraç Merkez Parkı,28.6466593689199,41.0353608883694,İSTİKLAL,ESENYURT
Cevher Dudayev Parkı,28.7175429479552,41.1968331546112,TAŞOLUK,ARNAVUTKÖY
Zümrüt Parkı,28.9178038085467,41.1536892694903,MİMAR SİNAN,EYÜPSULTAN
Kazım Karabekir Parkı,28.9137071775134,41.1565781392865,MİTHATPAŞA,EYÜPSULTAN
Eşref Bitlis Parkı,29.2289445943421,41.0157552461714,ATATÜRK,SANCAKTEPE
Meliha Teyze Parkı,29.082588063435,41.1051915763678,ÇUBUKLU,BEYKOZ
Funda Parkı,28.6796524595562,41.0643179139416,BAHÇEŞEHİR 2. KISIM,BAŞAKŞEHİR
Funda Parkı,28.6796524595562,41.0643179139416,BAHÇEŞEHİR 2. KISIM,BAŞAKŞEHİR
Emin Batmazoğlu Parkı,28.6867732935877,41.0350869480142,SULTANİYE,ESENYURT
Gazi Parkı,29.2604430841887,40.9931289887488,MİMAR SİNAN,SULTANBEYLİ
Hizmet Binaları Parkı,28.7504468510014,41.0730631169099,GÜVERCİNTEPE,BAŞAKŞEHİR
Mesa Nurol Parkı,28.6912042708291,41.0774352868998,BAHÇEŞEHİR 1. KISIM,BAŞAKŞEHİR
Sevgi Parkı,29.2249517911756,41.009327942352,ATATÜRK,SANCAKTEPE
Gümüşpınar Parkı,29.203427044065,40.9201733235303,GÜMÜŞPINAR,KARTAL
Hacı Kahya Sok. Parkı,29.2264390042692,40.919924305858,YAKACIK YENİ,KARTAL
Bayır Sok. Parkı,29.1845178709338,40.8939817504211,YUKARI,KARTAL
Gül Parkı,29.2013865361297,40.8952864147863,ÇAVUŞOĞLU,KARTAL
Şehit Ayhan Abbas Çatalçam Parkı,29.2306317790772,40.9068727131447,HÜRRİYET,KARTAL
Park,28.0798290325158,41.0835646443889,BALABAN,SİLİVRİ
Park,29.1936956913724,40.903571927596,ESENTEPE,KARTAL
1251 Ada Parkı,28.8055359454939,41.120183333339,BAŞAK,BAŞAKŞEHİR
Deprem Konutları Meydan Parkı,28.8000050765412,41.1114868814723,BAŞAK,BAŞAKŞEHİR
Şehit Bülent Kocabıyık Parkı,29.1014267259879,41.1263372326841,GÜMÜŞSUYU,BEYKOZ
Şehit Hüseyin Baş Parkı,28.9296899766183,41.0416294007815,NİŞANCI,EYÜPSULTAN
Osmanlı Parkı,28.9472836716679,41.073700669807,ALİBEYKÖY,EYÜPSULTAN
Üsküp Parkı,28.9441105127735,41.0764887967101,ALİBEYKÖY,EYÜPSULTAN
Atatürk Parkı,29.0957306513648,41.1155647971212,PAŞABAHÇE,BEYKOZ
Kardak Şehitleri Parkı,29.0890356024135,41.1741748667749,ANADOLU KAVAĞI,BEYKOZ
Balaban Deresi Çıkmaz Parkı,28.6956937612422,41.0715952916434,BAHÇEŞEHİR 1. KISIM,BAŞAKŞEHİR
Yirmiüç Nisan Parkı,29.1090280824028,41.0096095824986,ARMAĞANEVLER,ÜMRANİYE
Hikmet Sürücü Parkı,29.2239169155955,40.9044276435923,CUMHURİYET,KARTAL
Şehit Ütğm. Gökhan Yavuz Parkı,29.2210451073914,40.8921313843705,YALI,KARTAL
Çamlık Parkı,29.2969089867436,40.9608924451565,MECİDİYE,SULTANBEYLİ
Akşemsettin Parkı,29.2153846213757,40.9362075437104,UĞUR MUMCU,KARTAL
Park,28.2592854302039,41.0715901774601,ALİBEY,SİLİVRİ
Yeşim Sok. Parkı 2,29.0262773694795,41.0805782018423,AKAT,BEŞİKTAŞ
Yahya Çavuş Parkı,29.1096372184823,41.0109066610126,ARMAĞANEVLER,ÜMRANİYE
Alparslan Parkı,29.1028641463153,41.0102469872686,ATAKENT,ÜMRANİYE
Ümraniye Gölet Parkı,29.1802006781597,41.0133707746115,MADENLER,ÜMRANİYE
Şehit Er Murat Karataş Parkı,29.2278902521874,41.00196305014,ABDURRAHMANGAZİ,SANCAKTEPE
Atatürk Parkı,29.2279420955291,40.9862658094378,ABDURRAHMANGAZİ,SANCAKTEPE
Cemil Meriç Parkı,29.1972015585584,41.0128277675719,MECLİS,SANCAKTEPE
Zaloğlu Rüstem Parkı,29.2399393733984,40.9691005930379,VEYSEL KARANİ,SANCAKTEPE
Şehit Oktay Karakelle Parkı,29.2115009927848,40.9160473112398,ORTA,KARTAL
Atatürk Parkı,29.1903713249703,40.8876379641033,KORDONBOYU,KARTAL
Kartal Kumcular Mevkii Sahil Parkı,29.2106647951307,40.8809662497403,KORDONBOYU,KARTAL
Cevizlibahçe Parkı,29.0995671351633,41.1477995221381,ORTAÇEŞME,BEYKOZ
İhsan Sedef Parkı,29.0941678851858,41.1335767528718,MERKEZ,BEYKOZ
Şakayık Parkı,28.6252053810645,41.157366548156,HADIMKÖY,ARNAVUTKÖY
Sağlıklı Yaşam Parkı,28.8343663356469,40.9951376764819,FEVZİ ÇAKMAK,BAHÇELİEVLER
Şehit Sedat Bugan Parkı,29.2382694440962,40.9903813323166,ABDURRAHMANGAZİ,SANCAKTEPE
Park,29.1816130571321,40.8902294819992,YUKARI,KARTAL
Baklalı Park,28.6543767581306,41.2590268710423,BAKLALI,ARNAVUTKÖY
Şehit Kemal Özarar Parkı,28.9359172381179,41.0623762257501,SAKARYA,EYÜPSULTAN
Akıncılar Parkı,29.278941591085,40.9794954369855,BATTALGAZİ,SULTANBEYLİ
Arda Sok. Parkı,28.4637335953605,41.1318928296402,FERHATPAŞA,ÇATALCA
Dar Vadi Parkı,28.9527205053305,41.0765008494196,GÜZELTEPE,EYÜPSULTAN
Kocayusuf Çocuk Parkı,29.2763438280651,40.8922671755878,GÜLLÜ BAĞLAR,PENDİK
Göztepe Parkı,29.0766953339002,41.0797980450903,GÖZTEPE,BEYKOZ
Beykoz Çayırı,29.0862507034225,41.1422617597225,ORTAÇEŞME,BEYKOZ
Yasemin Terzi Parkı,29.0843619017452,41.1402716258013,YALIKÖY,BEYKOZ
İlker Aktaş Parkı,29.076461911171,41.0739193553891,YENİ MAHALLE,BEYKOZ
Seyfi Baba Parkı,29.0996482677397,41.0979083448778,RÜZGARLIBAHÇE,BEYKOZ
Orhangazi Çocuk Parkı,29.2941673205875,40.8714979219144,ORHANGAZİ,PENDİK
Masal Kahramanları Parkı,28.8751872617505,41.0835213473879,CUMHURİYET,SULTANGAZİ
Dikilitaş Parkı,29.0045038223701,41.056044075611,DİKİLİTAŞ,BEŞİKTAŞ
Park,28.2432369510172,41.3063640408235,DANAMANDIRA,SİLİVRİ
Park,28.2384711583075,41.0769867046341,PİRİ MEHMET PAŞA,SİLİVRİ
Park,28.2384711583075,41.0769867046341,PİRİ MEHMET PAŞA,SİLİVRİ
Çiğdem Parkı,28.6975233113077,41.0158309144933,AKŞEMSEDDİN,ESENYURT
Arif Paşa Parkı,28.9269799991625,41.0492561025788,İSLAMBEY,EYÜPSULTAN
İslambey Bostanı Sok. Parkı,28.9272589343728,41.0519177710451,İSLAMBEY,EYÜPSULTAN
Sülüntepe Parkı,29.2815901222123,40.9118950488913,SÜLÜNTEPE,PENDİK
Ulubatlı Hasan Parkı,28.8553328600485,41.0559193166973,ORUÇREİS,ESENLER
Gazi Şenol Parkı,28.8610191738446,41.0529216496703,TUNA,ESENLER
Çınar Parkı,29.3139329870105,40.8216937989773,CAMİ,TUZLA
Cumhuriyet Parkı,29.304732069082,40.8469528046304,İÇMELER,TUZLA
Mehmet Özbahçe Parkı,28.7412724201551,41.1930903709706,İSLAMBEY,ARNAVUTKÖY
400 Konutlar Parkı,28.8979837391434,41.0124795222546,TOZKOPARAN,GÜNGÖREN
Ezher Sok. Parkı,28.8940230681283,41.0159005441862,TOZKOPARAN,GÜNGÖREN
Halk Pazarı Arkası Parkı,28.8948609084171,41.0173611136942,TOZKOPARAN,GÜNGÖREN
Şehit Orgeneral Eşref Bitlis Parkı,29.234200959656,40.8777861006246,DOĞU,PENDİK
Etiler Muhtarlık Parkı,29.0361149897834,41.0826391610914,ETİLER,BEŞİKTAŞ
Doğan Koloğlu Parkı,28.8399019700876,40.9950801138291,HÜRRİYET,BAHÇELİEVLER
Dikilitaş Parkı,29.1081763182303,41.1270192969666,GÜMÜŞSUYU,BEYKOZ
Verem Savaş Dispanser Parkı,29.0894034647406,41.0301554489167,ATATÜRK,ÜMRANİYE
İstiklal Parkı,29.1000725867473,41.0155309919716,İSTİKLAL,ÜMRANİYE
Saadet Çocuk Parkı,29.2221785597359,40.8840165089026,SAPAN BAĞLARI,PENDİK
Park,29.2809894886557,40.8810404926364,KAVAKPINAR,PENDİK
Kavakpınar Gençlik Merkezi Parkı,29.2797318183895,40.8811716611334,KAVAKPINAR,PENDİK
Ali Sezer Çocuk Parkı,29.1062795267235,41.1116242311932,SOĞUKSU,BEYKOZ
Hasan Kayım Parkı,28.7441397106384,41.1790686565414,ARNAVUTKÖY MERKEZ,ARNAVUTKÖY
Manastıraltı Çocuk Parkı,29.0515763389941,40.90443888127,KINALIADA,ADALAR
Dr. Sadık Ahmet Parkı,29.0918934413642,41.0234497650431,NAMIK KEMAL,ÜMRANİYE
Aslan Yıldırım Parkı,29.0928356554537,41.0193460173061,NAMIK KEMAL,ÜMRANİYE
Şehit Er Sebahattin Akgül Parkı,28.7520410277211,41.1864976131661,ANADOLU,ARNAVUTKÖY
Manolya Parkı,28.9234055847296,41.0779968924835,YEŞİLPINAR,EYÜPSULTAN
Park,28.9199518669517,41.0817174356513,YEŞİLPINAR,EYÜPSULTAN
Seyit Onbaşı Parkı,29.1438040707289,41.0105941233084,ALTINŞEHİR,ÜMRANİYE
Ahmet Yüksel Özemre Parkı,29.1089155599021,41.0472793797322,KAZIM KARABEKİR,ÜMRANİYE
İkbal-2 Parkı,29.1275280197748,41.0101774021827,ÇAMLIK,ÜMRANİYE
Ovayenice Cemal Yamaner Parkı,28.4179124349703,41.097734509146,OVAYENİCE,ÇATALCA
Çakıl Mah. Mezarlık Yanı Parkı,28.4465043233257,41.1256750877207,ÇAKIL,ÇATALCA
Balibey Parkı,29.6186835780486,41.1764449013492,BALİBEY,ŞİLE
Boyacıdere Parkı,29.6151338358281,41.1737716314829,ÇAVUŞ,ŞİLE
Liman Parkı,29.6073309378715,41.1808744215084,HACI KASIM,ŞİLE
Yonca Parkı,28.9905264992875,41.0778957003365,GÜLTEPE,KAĞITHANE
57. Alay Parkı,28.9594982285785,41.0570405179184,TALATPAŞA,KAĞITHANE
Ali Ekber Karagöz Parkı,29.1780456638855,40.9085592889974,CEVİZLİ,KARTAL
Park,28.2383559963507,41.1481251133525,FENER,SİLİVRİ
Telli Hüseyin Parkı,29.0831764524584,41.1043051745435,ÇUBUKLU,BEYKOZ
Gül 12 Parkı,28.679025654903,41.067099286136,BAHÇEŞEHİR 2. KISIM,BAŞAKŞEHİR
Şelale Parkı,28.6808906089924,41.0692857417597,BAHÇEŞEHİR 2. KISIM,BAŞAKŞEHİR
Atatürk Kültür Sanat Parkı,28.6853588573219,41.0620476776215,BAHÇEŞEHİR 2. KISIM,BAŞAKŞEHİR
Çınar Parkı,28.6888449498735,41.0653953482879,BAHÇEŞEHİR 1. KISIM,BAŞAKŞEHİR
Şehit İbrahim Doğan Parkı,29.3671484618355,40.8320162230059,MİMAR SİNAN,TUZLA
Muhsin Yazıcıoğlu Parkı,28.6638866154801,41.0479161998604,SELAHADDİN EYYUBİ,ESENYURT
Çocuk Parkı,28.6629896323833,41.0277460964035,YEŞİLKENT,ESENYURT
Ahmet Yesevi Mah. Parkı,29.2769657829585,40.9739528993941,AHMET YESEVİ,SULTANBEYLİ
3080 Ada Parkı,28.7540036647373,41.0662212820049,ALTINŞEHİR,BAŞAKŞEHİR
Sevgi Çocuk Parkı,29.2259752406784,41.0157596306613,ATATÜRK,SANCAKTEPE
Ahmet Yesevi Parkı,29.2099021275602,40.9181065626249,GÜMÜŞPINAR,KARTAL
Bulvar Park,29.1867542791444,40.9007910491466,KARLIKTEPE,KARTAL
Şehit Semih Balaban Parkı,29.1619757812505,40.9023331425635,ORHANTEPE,KARTAL
2023 Parkı,29.1731424954718,41.0033135263956,ESENKENT,ÜMRANİYE
Öner Yılmaz Güven Parkı,29.0433132559173,41.0672084552241,ARNAVUTKÖY,BEŞİKTAŞ
Atasoy Parkı,28.9881336238254,41.0824900926733,YAHYA KEMAL,KAĞITHANE
Çocuk Parkı,28.7690411436931,41.1061341710309,KAYABAŞI,BAŞAKŞEHİR
Tıknefes Parkı,29.0276473028594,41.0223817635286,MURATREİS,ÜSKÜDAR
Çocuk Parkı,28.62197296001,41.0558820792144,ÇAKMAKLI,BÜYÜKÇEKMECE
Allame Parkı,29.033038447519,41.0203863473546,VALİDE-İ ATİK,ÜSKÜDAR
Çocuk Parkı,29.0757375781697,41.0083925749648,CUMHURİYET,ÜSKÜDAR
Çocuk Parkı,29.0815565493304,41.0113549050479,CUMHURİYET,ÜSKÜDAR
Sinan Sok. Parkı,29.2216825275333,40.8947039286561,YALI,KARTAL
Şehit Mustafa Piroğlu Parkı,29.2131393199228,40.8913077587979,YUNUS,KARTAL
Fidan Sok. Parkı,29.0258563606256,41.0814262041039,AKAT,BEŞİKTAŞ
Yeşim Sok. Parkı-1,29.0261948590821,41.0810160234487,AKAT,BEŞİKTAŞ
Özkonak Parkı,29.1074020683636,41.0158154148609,ATAKENT,ÜMRANİYE
Erdem Parkı,29.1023308479446,41.0308027378082,İNKILAP,ÜMRANİYE
Hatboyu Parkı,29.143250919412,41.001208130672,ŞERİFALİ,ÜMRANİYE
Elmas Parkı,29.1511851236689,41.0030961252174,ŞERİFALİ,ÜMRANİYE
Demir Parkı,29.13776724049,41.012422331335,ALTINŞEHİR,ÜMRANİYE
Güvercin Parkı,29.1489229330595,41.0056596831378,YUKARI DUDULLU,ÜMRANİYE
Cumhuriyet Parkı,29.2105942889028,41.0051495924757,SARIGAZİ,SANCAKTEPE
Mehtap Parkı,29.2420953439115,41.0035460143303,ABDURRAHMANGAZİ,SANCAKTEPE
Çeşme Parkı,29.2299658948859,40.9615240814292,AKPINAR,SANCAKTEPE
Kavack Parkı,29.0769754566499,41.0888838137902,KAVACIK,BEYKOZ
Berkin Parkı,28.4565597674202,41.0346285698261,KUMBURGAZ,BÜYÜKÇEKMECE
Kandilli Boğaziçi Parkı,29.0590425661159,41.0733520546961,KANDİLLİ,ÜSKÜDAR
Ali İsmail Korkmaz Parkı,29.0280104357138,40.9960224133103,RASİMPAŞA,KADIKÖY
Çocuk Parkı,28.5628051096633,41.014545332317,MİMAR SİNAN,BÜYÜKÇEKMECE
Dereboyu Parkı,29.0850620223578,41.0624166904267,HEKİMBAŞI,ÜMRANİYE
Üçgül Parkı,29.0689058394448,41.0015208897215,ÜNALAN,ÜSKÜDAR
Çocuk Parkı,28.9817593109754,41.0453758583593,ESKİŞEHİR,ŞİŞLİ
Park,28.3353580438082,41.0593092013138,SELİMPAŞA,SİLİVRİ
Park,28.2414464066121,41.0758749448877,PİRİ MEHMET PAŞA,SİLİVRİ
Tahtakale Belediye Parkı,28.7257356351257,41.0563358477682,TAHTAKALE,AVCILAR
Park,28.2458899315984,41.0873589576079,MİMAR SİNAN,SİLİVRİ
Neşe Sohrauer Parkı,28.0828136504442,41.0602022724369,BALABAN,SİLİVRİ
Çocuk Parkı,28.0120688460827,41.1016405688813,İSMETPAŞA,SİLİVRİ
Park,29.0328841228383,41.08136837969,ETİLER,BEŞİKTAŞ
Çocuk Parkı,29.036469652933,41.1223444237646,DARÜŞŞAFAKA,SARIYER
Osmanlı Parkı,28.6447508773606,40.9966668675732,BARIŞ,BEYLİKDÜZÜ
Gazateci Erol Demek Parkı,29.1222321574137,40.9310449052904,FEYZULLAH,MALTEPE
Belediye Çocuk Parkı,29.2642007605911,40.872255803559,KAYNARCA,PENDİK
Park,29.199756898208,40.9137107779426,SOĞANLIK YENİ,KARTAL
E. Baylav Parkı,28.2048726648059,41.1312765113819,KÜÇÜK KILIÇLI,SİLİVRİ
Şehit Bayram Top Parkı,29.0927462222052,41.1589665743223,TOKATKÖY,BEYKOZ
Park,29.1059211940243,41.1480152860714,AKBABA,BEYKOZ
Şh. Öğretmen Nuri Öztürk Parkı,29.2897839465359,40.8655176119951,ORHANGAZİ,PENDİK
Park,28.3803995417148,41.1010263125293,ORTAKÖY,SİLİVRİ
Park,28.1742307406011,41.3161244325791,SAYALAR,SİLİVRİ
Recep Tayyip Erdoğan Parkı,28.6888278172935,41.017193205687,ZAFER,ESENYURT
Şehit Kadir Demir Parkı,29.2515005780028,40.9061062951088,VELİBABA,PENDİK
B. Cad. Parkı,28.8778908605249,41.0918048748023,50. YIL,SULTANGAZİ
Şehit Türkmen Tekin Parkı,28.8926480067719,41.030875247823,ÇİFTE HAVUZLAR,ESENLER
Marmara Parkı,29.2947807295273,40.856256880768,AYDINTEPE,TUZLA
Mustafa Kuru Parkı,29.3056511390912,40.8488801074831,İÇMELER,TUZLA
Ulubatlı Hasan Parkı,28.7594955096372,41.2076053120624,MAVİGÖL,ARNAVUTKÖY
Taşoluk Meydan Parkı,28.7139963076143,41.1980793266131,TAŞOLUK,ARNAVUTKÖY
Kuruçeşme Parkı,29.0373095806766,41.0607255245393,KURUÇEŞME,BEŞİKTAŞ
Halit Ziya Uşaklıgil Parkı,28.8224675773472,40.9579175498664,YEŞİLKÖY,BAKIRKÖY
Şehit Müahit Parkı,29.1485313762092,40.925933949848,BAĞLARBAŞI,MALTEPE
Tan Sok. Parkı,29.1409137698377,40.9256348516939,BAĞLARBAŞI,MALTEPE
Mustafa Şener Abbasgil Parkı,29.1202106940185,40.9361308625094,FEYZULLAH,MALTEPE
Mehmet Ercan Ergin Parkı,29.0936864455902,40.965652993347,KOZYATAĞI,KADIKÖY
Telsizler Parkı,29.1667927606977,40.9420161383343,GÜLENSU,MALTEPE
Çocuk Parkı,28.0125290641317,41.0914721091515,FEVZİPAŞA,SİLİVRİ
Düğmeciler-2 Parkı,28.9232780833707,41.046124269639,DÜĞMECİLER,EYÜPSULTAN
Etiler Huzur Evi Parkı,29.0370253238226,41.083235890328,ETİLER,BEŞİKTAŞ
Çeşmeli Parkı,29.085237033673,41.0061731166323,ESATPAŞA,ATAŞEHİR
İBB Kavak Sahil Parkı,29.0834142949492,41.1683957225744,ANADOLU KAVAĞI,BEYKOZ
Örcünlü Park,28.5248952501946,41.2197985781366,ÖRCÜNLÜ,ÇATALCA
Ağva Mah. Demirkofa Parkı,29.8593007991678,41.1359300969022,AĞVA MERKEZ,ŞİLE
Ağva Mah. Demirkofa Parkı,29.8593007991678,41.1359300969022,AĞVA MERKEZ,ŞİLE
Fatih Sultan Mehmet Parkı,28.9733216667078,41.0880484635501,MERKEZ,KAĞITHANE
Konutbirlik Parkı,28.7654566310919,41.0341666725367,İSTASYON,KÜÇÜKÇEKMECE
Galeri Cad. Parkı,28.8988231284828,41.0817562097815,KARAYOLLARI,GAZİOSMANPAŞA
Halet Tuncet Parkı,29.0125520417071,41.0091180130155,SELİMİYE,ÜSKÜDAR
Menkeşe Parkı,29.0519501057554,41.0128326495683,ACIBADEM,ÜSKÜDAR
Şeker Maslak Parkı,29.0700090258009,41.0101651741265,KÜÇÜKÇAMLICA,ÜSKÜDAR
Park,29.0894688521597,41.0115791695979,ESENEVLER,ÜMRANİYE
Kartopu Parkı,28.781884825599,41.0489340838188,ATAKENT,KÜÇÜKÇEKMECE
Fevzi Çakmak Parkı,28.7923854353277,41.009311225301,FEVZİ ÇAKMAK,KÜÇÜKÇEKMECE
Günışığı Parkı,28.7938834639712,41.0369559418315,HALKALI MERKEZ,KÜÇÜKÇEKMECE
Turgut Reis Parkı,29.0859046970219,41.0161915955445,BULGURLU,ÜSKÜDAR
Park,29.0536610977805,41.0468575894984,ÇENGELKÖY,ÜSKÜDAR
Aziz Nesin Parkı,28.4520774521354,41.1875646750755,KALEİÇİ,ÇATALCA
Park,28.4324941693479,41.046279801754,KAMİLOBA,BÜYÜKÇEKMECE
Lekeci Nuri Parkı,29.0669687336766,41.0556698298252,ÇENGELKÖY,ÜSKÜDAR
Dere Parkı,29.1125103632733,41.0394438826448,İNKILAP,ÜMRANİYE
Evliya Çelebi-2 Park,29.1899316916353,41.0035707143819,ESENKENT,ÜMRANİYE
Park,28.5302116412832,41.0154650853705,MURAT ÇESME,BÜYÜKÇEKMECE
Park,28.53051997995,41.0177566057619,MURAT ÇESME,BÜYÜKÇEKMECE
Çocuk Parkı,29.124130392802,41.0122172013673,ÇAKMAK,ÜMRANİYE
Eylül Parkı,29.0768568078322,40.9891246903594,MERDİVENKÖY,KADIKÖY
Park,28.6350320054485,40.9974636664667,ADNAN KAHVECİ,BEYLİKDÜZÜ
Hasan Hüseyin Parkı,28.9932456784716,41.0860451294011,ŞİRİNTEPE,KAĞITHANE
Zübeyde Hanım Parkı,28.5813382996454,41.022744499391,19 MAYIS,BÜYÜKÇEKMECE
Çocuk Parkı,29.1348585158404,40.9748228452014,İNÖNÜ,ATAŞEHİR
Park,29.2704503990533,40.9834519119891,BATTALGAZİ,SULTANBEYLİ
Çocuk Parkı,28.2218409660034,41.1083432849708,ALİPAŞA,SİLİVRİ
Kardelen Parkı,29.1329134104626,41.0233520504546,IHLAMURKUYU,ÜMRANİYE
Muzaffer Uzuner Parkı,29.1612382023263,41.0021857679039,ESENŞEHİR,ÜMRANİYE
Necati Çelik Parkı,29.0991231875493,41.0199229763576,İSTİKLAL,ÜMRANİYE
Çocuk Parkı,28.6400196136449,40.9830518456528,KAVAKLI,BEYLİKDÜZÜ
Park,29.3412670084782,40.8624081953203,AYDINLI,TUZLA
Aydınlı Merkez Parkı,29.3284934267708,40.8693384551188,AYDINLI,TUZLA
Park,28.9900386459807,41.049437954521,HARBİYE,ŞİŞLİ
Çocuk Parkı,28.2438764707697,41.0848885025642,MİMAR SİNAN,SİLİVRİ
Çocuk Parkı,29.2692808355203,41.1756629313183,GÖLLÜ,BEYKOZ
Park,29.3042573071386,40.8703641890398,AHMET YESEVİ,PENDİK
Park,29.1336981131432,40.9158391976258,YALI,MALTEPE
Barış Manço Çocuk Parkı,29.1249759138603,40.9263107294545,FEYZULLAH,MALTEPE
Engin Toker Parkı,29.1298841081776,40.9313016880542,ALTAYÇEŞME,MALTEPE
Adile Naşit Parkı,29.1134029694255,40.9500209081566,KÜÇÜKYALI MERKEZ,MALTEPE
Almata Parkı,28.7231436135672,40.9698617977792,AMBARLI,AVCILAR
Çocuk Parkı,29.0795564533168,40.9970350605587,ÖRNEK,ATAŞEHİR
Begonya Parkı,29.1261611807589,40.981450041511,KÜÇÜKBAKKALKÖY,ATAŞEHİR
Bahçeşehir Botanik Parkı,28.673312022211,41.0646515610085,BAHÇEŞEHİR 2. KISIM,BAŞAKŞEHİR
Evliya Çelebi-1 Park,29.1905384549287,41.0019764757576,ESENKENT,ÜMRANİYE
Sinan Şamil Şam Parkı,28.8726869876221,40.9963246985754,KARTALTEPE,BAKIRKÖY
Türkmen Parkı,29.1260280132122,41.0111464439915,ÇAKMAK,ÜMRANİYE
Park,29.1707759786452,40.932366233967,ESENKENT,MALTEPE
Necati Akkuş Parkı,28.8722765297479,40.9971634586891,KARTALTEPE,BAKIRKÖY
Çocuk Parkı,28.9007442266731,41.0777243406452,YENİ MAHALLE,GAZİOSMANPAŞA
Paşa Konağı Parkı,28.9359806278202,41.0481524873469,MERKEZ,EYÜPSULTAN
Çocuk Parkı,28.3658204257188,41.1339492438661,KADIKÖY,SİLİVRİ
Tepe Parkı,29.230541891431,40.9213431882247,YAKACIK ÇARŞI,KARTAL
Çocuk Parkı,28.6544343713106,41.0170664688781,CUMHURİYET,ESENYURT
Zümrüt Sok. Parkı,29.1778223925006,40.9062219297647,ATALAR,KARTAL
Park,29.1162417526427,40.9364927782729,İDEALTEPE,MALTEPE
Son Durak Parkı,29.1424641922578,40.958880912652,BAŞIBÜYÜK,MALTEPE
Atatürk Parkı,29.143887109909,40.955083292812,BAŞIBÜYÜK,MALTEPE
Kültür Sitesi Parkı,29.1711864351734,40.9313252197151,ESENKENT,MALTEPE
2 Temmuz Parkı,29.1616450348491,40.9267380953656,ESENKENT,MALTEPE
Imran Botanik Parkı,29.0301869268364,41.0916777934982,AKAT,BEŞİKTAŞ
Çocuk Parkı,29.0146855278892,41.2147932673945,USKUMRUKÖY,SARIYER
Çocuk Parkı,29.5629618129858,41.1591149491098,MEŞRUTİYET,ŞİLE
Altay Çeşme Mahalle Parkı,29.1263610096496,40.934560146947,ALTAYÇEŞME,MALTEPE
Taşhan Park (Sakızağacı Parkı),28.8836372735939,40.9781114136712,SAKIZAĞACI,BAKIRKÖY
Erler Çocuk Parkı,28.803103677053,41.0282918685802,İNÖNÜ,KÜÇÜKÇEKMECE
Fatih Sultan Mehmet Parkı,28.6749317530888,40.9838568265501,MARMARA,BEYLİKDÜZÜ
Atatürk Parkı,28.7937996830079,40.9804954891673,ŞENLİKKÖY,BAKIRKÖY
Naima Sok. Parkı,28.8144427810364,40.9582405196663,YEŞİLKÖY,BAKIRKÖY
M. Fevzi Çakmak Parkı,28.8577478691162,41.0430028035332,FEVZİ ÇAKMAK,BAĞCILAR
Göztepe Mahalle Konağı Parkı,28.8365184153159,41.0592165799124,GÖZTEPE,BAĞCILAR
Gülbahar Parkı,28.9298343283685,41.0751253091593,KARADOLAP,EYÜPSULTAN
Karadolap Parkı,28.9384559001393,41.0728622953202,KARADOLAP,EYÜPSULTAN
Vardar Parkı,28.9382654898422,41.0721903439881,KARADOLAP,EYÜPSULTAN
Mercan Parkı,28.9219053132051,41.0775000451248,YEŞİLPINAR,EYÜPSULTAN
Papatya Sok. Parkı,28.5401510918583,41.0055998497144,MİMAROBA,BÜYÜKÇEKMECE
Pembe Panter Parkı,28.6017750099916,41.0154244359614,ATATÜRK,BÜYÜKÇEKMECE
İpek Sok. Parkı,28.6070378429622,41.0175324271357,CUMHURİYET,BÜYÜKÇEKMECE
Sedir Sok. Parkı,28.6014392686274,41.0198492199816,FATİH,BÜYÜKÇEKMECE
Kekava Sok. Parkı-2,28.5359495938848,40.9922340534297,SİNANOBA,BÜYÜKÇEKMECE
Kamelya Sok. Parkı,28.5349772962086,41.0026055748176,MİMAROBA,BÜYÜKÇEKMECE
Basın Parkı,28.7998450448416,41.0136620699692,TEVFİKBEY,KÜÇÜKÇEKMECE
Çağlayan Parkı,28.9774492697865,41.0766789605506,ÇAĞLAYAN,KAĞITHANE
Ozan Emre Ünal Parkı,29.1234017071691,40.9388291109414,İDEALTEPE,MALTEPE
Çocuk Parkı,28.5808526148638,41.0252788105577,DİZDARİYE,BÜYÜKÇEKMECE
Sarıtaş Parkı,28.9685973669011,41.0657889912618,TALATPAŞA,KAĞITHANE
Aybike Parkı,29.1658570889489,40.9913222786324,YENİ ÇAMLICA,ATAŞEHİR
Hüriyet Parkı,28.9858568062494,41.0720124826722,HÜRRİYET,KAĞITHANE
Park,29.1877924576104,41.1534075835437,MAHMUTŞEVKETPAŞA,BEYKOZ
Park,29.2610928439427,41.1294500860031,CUMHURİYET,BEYKOZ
Park,28.8950861232245,41.0489758576293,KOCATEPE,BAYRAMPAŞA
Selin Erdoğan Parkı,28.8217644972185,40.9597083957587,YEŞİLKÖY,BAKIRKÖY
Nene Hatun Parkı,28.831730715556,41.0211662845359,KOCASİNAN MERKEZ,BAHÇELİEVLER
Çocuk Parkı,28.847745179988,41.0071089106266,SOĞANLI,BAHÇELİEVLER
Şirinler Parkı,28.9696093513124,41.0927012402369,HAMİDİYE,KAĞITHANE
Orkide Parkı,29.1498602372062,41.0277121769924,PARSELLER,ÜMRANİYE
Rami Kuru Gıda Parkı,28.9153317153538,41.0485408110544,RAMİ YENİ,EYÜPSULTAN
Mis Sok. Parkı,28.8864740416945,41.1840619201727,GÖKTÜRK MERKEZ,EYÜPSULTAN
Hasbahçe Parkı,28.8768324622887,41.0239801915966,MERKEZ,GÜNGÖREN
Son Durak Parkı,29.0857855943901,41.0074951082578,ESATPAŞA,ATAŞEHİR
Menekşe Parkı,28.8906235450497,41.0970614457146,YUNUS EMRE,SULTANGAZİ
Taşkent Parkı,28.7404389757508,40.9814447826714,GÜMÜŞPALA,AVCILAR
Bakırköy Cevizlik Parkı,28.8762670848506,40.9746362223062,CEVİZLİK,BAKIRKÖY
İsmail Akyüz Parkı,28.8681563361212,40.9840828541785,ZUHURATBABA,BAKIRKÖY
Spor Parkı,29.0592111510966,41.1141360987671,İSTİNYE,SARIYER
İsmet İnönü Parkı,29.0852378139358,40.9961606092963,ÖRNEK,ATAŞEHİR
Arnavutköy Şehir Parkı,28.7491080466762,41.1802938605779,ANADOLU,ARNAVUTKÖY
Çocuk Parkı,28.7049049346706,41.0138065857916,FİRUZKÖY,AVCILAR
Park,29.0485029653725,40.9846115897509,FENERYOLU,KADIKÖY
Çocuk Parkı,29.0319688633574,41.0957442502001,FATİH SULTAN MEHMET,SARIYER
Gonca Parkı,29.1760159051119,40.8960798337399,PETROL İŞ,KARTAL
Selanik Parkı,29.1976868818471,40.9718253591761,BÜYÜKBAKKALKÖY,MALTEPE
Limon Çiçeği Parkı,28.8714377706027,40.9958369095206,KARTALTEPE,BAKIRKÖY
Yayladağ Parkı,28.8787511422062,40.9888060384015,KARTALTEPE,BAKIRKÖY
Mustafa Pars Parkı,28.7966349517375,40.9749485036084,ŞENLİKKÖY,BAKIRKÖY
Kutlu Doğum Parkı,28.9120647103259,41.0767452916061,KAZIM KARABEKİR,GAZİOSMANPAŞA
Çocuk Parkı,28.8981151206178,41.0883138344185,KARAYOLLARI,GAZİOSMANPAŞA
Barış Parkı,28.6529650183097,41.0007108662699,BARIŞ,BEYLİKDÜZÜ
Serin Sok. Parkı,28.5316876692004,41.0031670451398,MİMAROBA,BÜYÜKÇEKMECE
Milli Hakimiyet Parkı,29.0799386773275,40.9792397157853,SAHRAYICEDİT,KADIKÖY
Çinek Parkı,29.0599530793524,40.9849386651316,MERDİVENKÖY,KADIKÖY
Çamlıca Aile Çay Bahçesi,28.8732381714849,41.0275729983054,GENÇOSMAN,GÜNGÖREN
Şeyh Edebali Parkı,28.8681973664923,41.0901121216454,50. YIL,SULTANGAZİ
Şener Şen Parkı,28.649440656585,40.9977036937434,BARIŞ,BEYLİKDÜZÜ
Sami Aksu Parkı,28.6197792144291,40.9922994855978,ADNAN KAHVECİ,BEYLİKDÜZÜ
Şehit Komando Er Ahmet Yıldız Parkı,28.6386824959613,40.9814486683887,KAVAKLI,BEYLİKDÜZÜ
Atatürk Parkı,28.6450531294644,41.0106738289248,BÜYÜKŞEHİR,BEYLİKDÜZÜ
Kalamış Parkı,29.037977646324,40.9800129802957,FENERBAHÇE,KADIKÖY
Reşit Paşa Parkı,28.6721234353772,40.9775517498871,MARMARA,BEYLİKDÜZÜ
Emniyettepe Parkı,28.953307138403,41.0704696162057,EMNİYETTEPE,EYÜPSULTAN
Çetin Alibeyoğlu Parkı,28.6430097598853,40.9659715279974,SAHİL,BEYLİKDÜZÜ
Yunus Emre Parkı,28.976051064839,41.0692193370427,GÜRSEL,KAĞITHANE
Mavi Ay Parkı,28.9700727808693,41.0675334156092,GÜRSEL,KAĞITHANE
Park,28.8263673184691,41.0533299567714,MAHMUTBEY,BAĞCILAR
Merkez Mah. Muhtarlık Parkı,28.8591555206761,41.0323141175619,MERKEZ,BAĞCILAR
Zeynel Abidin Camii Yanı Parkı,28.8229656077979,41.0429492136807,15 TEMMUZ,BAĞCILAR
Özgürlük Parkı,28.4530929602743,41.0304409847485,KUMBURGAZ,BÜYÜKÇEKMECE
Yazıtepe Parkı,28.9700823604421,41.0741395010822,GÜRSEL,KAĞITHANE
Evliya Çelebi Parkı,28.8386866064492,41.1277774361608,ESKİ HABİPLER,SULTANGAZİ
Org. Hilmi Özkök Parkı,28.831462542537,41.1302692284244,ESKİ HABİPLER,SULTANGAZİ
Sultangazi Parkı,28.9056841956519,41.0936259914388,75. YIL,SULTANGAZİ
Balıkçı Adası Parkı,28.7707219007467,40.9888137012471,FATİH,KÜÇÜKÇEKMECE
Küçükçekmece Göl Parkı,28.7686039504897,41.0018560722549,FATİH,KÜÇÜKÇEKMECE
Hoca Ahmet Yesevi Parkı,29.3039541287853,40.8665363958953,AHMET YESEVİ,PENDİK
Eyüp Sultan Parkı,28.8653826393492,41.1073991952908,CEBECİ,SULTANGAZİ
Hicret Parkı,28.8400827324528,41.1291902622059,HABİBLER,SULTANGAZİ
Anarşalılar Parkı,28.6035522576897,40.9914759540434,GÜRPINAR,BEYLİKDÜZÜ
Taş Ocağı Parkı,28.9852303909482,41.0751836068264,HÜRRİYET,KAĞITHANE
Acıbadem Parkı,29.0362770423104,40.9989813709776,ACIBADEM,KADIKÖY
Park,29.099447912687,40.9911125023383,BARBAROS,ATAŞEHİR
Şehit Fethi Parkı,29.2302459581733,40.8898930862447,BAHÇELİEVLER,PENDİK
Papatya Parkı,29.2478825176481,40.8899101484846,DUMLUPINAR,PENDİK
2 Temmuz Parkı,29.0269255900631,41.1693737248299,KAZIM KARABEKİR PAŞA,SARIYER
Kazım Karabekir Parkı,28.8447460087427,41.026222717765,KAZIM KARABEKİR,BAĞCILAR
Prof. Dr. Muammer Aksoy Parkı,28.8798166367217,40.9882799143631,KARTALTEPE,BAKIRKÖY
Şehit J. Komando. Çavuş Ali Bolcay Parkı,28.7059012947404,41.016768093577,FİRUZKÖY,AVCILAR
Yıldırım Beyazıd Parkı,29.3088191090644,40.8249905727387,POSTANE,TUZLA
Evren Mahallesi Şadırvan Sok. Parkı,28.8204487116535,41.0399475475474,15 TEMMUZ,BAĞCILAR
Kültür Merkezi Parkı,28.8544936597256,41.0379998188226,SANCAKTEPE,BAĞCILAR
Park,28.4193724768528,41.0519978189875,CELALİYE,BÜYÜKÇEKMECE
İBB Nurtepe Gezi Parkı,28.9600324070575,41.0836541113301,GÜZELTEPE,EYÜPSULTAN
Eyüpsultan Kapalı Halk Pazarı Parkı,28.8910740997632,41.1822081243495,GÖKTÜRK MERKEZ,EYÜPSULTAN
Pir Sultan Abdal Parkı,28.8949874371567,41.0989555193707,YUNUS EMRE,SULTANGAZİ
Mehmetçik Parkı,28.892439631545,41.099258034977,YUNUS EMRE,SULTANGAZİ
Defne Parkı,29.0880321654984,40.9860920805721,SAHRAYICEDİT,KADIKÖY
Yalı Sok. Çocuk Parkı,28.8747955076291,41.0212724063231,MERKEZ,GÜNGÖREN
Şelale Parkı,28.5838585030932,41.0200961287453,FATİH,BÜYÜKÇEKMECE
Sümbül Parkı,28.8948333785722,41.0969601014738,YUNUS EMRE,SULTANGAZİ
Emir Sultan Parkı,28.8676284591034,41.0917322677667,50. YIL,SULTANGAZİ
Şehit Piyade Er Zekeriya Yatı Parkı,28.7838664010101,41.0620210239004,ATAKENT,KÜÇÜKÇEKMECE
Barış Manço Parkı,29.0448877548569,41.0195985181558,ALTUNİZADE,ÜSKÜDAR
Nene Hatun Parkı,28.8747314270436,41.0950977227133,50. YIL,SULTANGAZİ
Fatih Sultan Mehmet Parkı,29.3006307700352,40.8562037605029,AYDINTEPE,TUZLA
Tuzla Belediyesi Parkı,29.3015627663792,40.8540547752007,AYDINTEPE,TUZLA
Birşen Sokak Parkı,28.7289570999712,40.9804963398034,MERKEZ,AVCILAR
Gonca Sok. Parkı,29.2909825692245,40.8209074973727,POSTANE,TUZLA
Gülyolu Parkı,29.1385948821091,40.924515674291,BAĞLARBAŞI,MALTEPE
Yunus Emre Parkı,29.2802962441833,40.8596583092698,GÜZELYALI,PENDİK
Nur Sok. Parkı,29.2641494988076,40.8732856127924,KAYNARCA,PENDİK
Sahil Parkı,29.2537558993461,40.8699907065278,KAYNARCA,PENDİK
Adile Naşit Parkı,28.992727776897,41.0586134408111,19 MAYIS,ŞİŞLİ
Günaydın Parkı,29.0788092495887,41.0039213438388,FETİH,ATAŞEHİR
İsmail Hakkı Demir Parkı,28.9044863633909,41.0713552905176,FEVZİ ÇAKMAK,GAZİOSMANPAŞA
Çocuk Parkı,28.8450150028243,41.0518568301616,FATİH,BAĞCILAR
Yeşiltepe Parkı,29.003435718302,41.1234206762322,AYAZAĞA,SARIYER
Çimen Parkı,28.8641354625206,41.110773890795,CEBECİ,SULTANGAZİ
80. Yıl Parkı,28.6090567245433,40.9873640924392,GÜRPINAR,BEYLİKDÜZÜ
Mimoza Parkı,29.037169141235,41.0119950452691,KOŞUYOLU,KADIKÖY
Şehit Ast. İbrahim Gürhan Parkı,29.0772633454126,40.979831866393,SAHRAYICEDİT,KADIKÖY
Mimar Sinan Parkı,29.1124444586344,40.9948417902406,BARBAROS,ATAŞEHİR
Eğit Ahmet Erişen Parkı,29.2320867757681,40.8750491783124,BATI,PENDİK
Dr. Tahsin Arcan Parkı,29.2392390101907,40.8767588161161,DOĞU,PENDİK
Ertuğrul Gazi Parkı,29.2646543283746,40.9152747425499,ERTUĞRUL GAZİ,PENDİK
Çocuk Parkı,29.0227535088144,41.0919928380938,AKAT,BEŞİKTAŞ
Dr. Sadık Ahmet Parkı,28.8834626049836,40.995118626012,OSMANİYE,BAKIRKÖY
Şehit P. İbrahim Candemir Parkı,28.7254022161164,40.9750427924301,DENİZKÖŞKLER,AVCILAR
P. Er Erdal Yulalı Parkı,28.7290382644665,40.9759713765342,DENİZKÖŞKLER,AVCILAR
Cemal Kaytaz Parkı,28.7411288797685,40.9735507320905,DENİZKÖŞKLER,AVCILAR
Şehit Ast. Erdoğan Yeni Parkı,29.2573061783983,40.8716735640314,KAYNARCA,PENDİK
Açelya Parkı,29.0758060934495,41.0013061915333,FETİH,ATAŞEHİR
Sedat Balkanlı Parkı,28.9068213492754,41.0758847357206,FEVZİ ÇAKMAK,GAZİOSMANPAŞA
Ramazanoğlu-2 Parkı,29.2878784974542,40.8968886188674,RAMAZANOĞLU,PENDİK
Şehit Turan Kutlu Parkı,29.2968896900989,40.9074871479054,RAMAZANOĞLU,PENDİK
Kalem Sok. Park,29.2818247956864,40.9133387689098,SÜLÜNTEPE,PENDİK
Yunus Emre Cad. Parkı,29.2798099636769,40.9088738583506,ŞEYHLİ,PENDİK
Mehmet Bölük Kültür ve Sanat Parkı,29.1314132540706,40.8731107186547,MADEN,ADALAR
Park,29.1384351783945,40.8713832076375,MADEN,ADALAR
Poligon Parkı,29.0410746106197,41.1162541500001,POLİGON,SARIYER
Mareşal Fevzi Çakmak Parkı,28.8844115052758,41.0421738672292,FEVZİ ÇAKMAK,ESENLER
Esenler Bölge Parkı,28.8724688711972,41.0585086801914,HAVAALANI,ESENLER
4. Sok. Parkı,28.8809524102945,41.0398329019863,MENDERES,ESENLER
Kefeli Köy Sahil Parkı,29.0372226028126,41.1534334856481,CUMHURİYET,SARIYER
Japon Bahçesi,29.0521702763451,41.0970557266048,BALTALİMANI,SARIYER
Mehmet Akif Ersoy Parkı,28.8046471334871,41.0572888011507,MEHMET AKİF,KÜÇÜKÇEKMECE
Şenol Ergün Parkı,28.776968218435,40.9924222206266,YENİ MAHALLE,KÜÇÜKÇEKMECE
Kanarya Park,28.7808400655205,41.0169375673092,KANARYA,KÜÇÜKÇEKMECE
Ova Parkı,29.3072054091722,40.8175873701891,CAMİ,TUZLA
Ahmet Davutoğlu Parkı,28.9084935133687,41.0598196410222,MERKEZ,GAZİOSMANPAŞA
Park,28.9107245683426,41.0591911377133,MERKEZ,GAZİOSMANPAŞA
Zeynebiye Parkı,28.801361301911,41.0396486756409,HALKALI MERKEZ,KÜÇÜKÇEKMECE
Uygar Sok. Parkı,29.1678372182161,40.8983913289245,KORDONBOYU,KARTAL
Dere Sok. Parkı,29.2192871723885,40.8854457840641,SAPAN BAĞLARI,PENDİK
Ayazağa Parkı,28.9960896783786,41.1201347293658,AYAZAĞA,SARIYER
Taşkıran Parkı,28.9651239973069,41.0638506386586,TALATPAŞA,KAĞITHANE
Albız Parkı,28.9970650569353,41.0838417253481,ÇELİKTEPE,KAĞITHANE
Özel Esenler Hayat Hastanesi Parkı,28.8825145646892,41.0394686561928,FEVZİ ÇAKMAK,ESENLER
5. Sok. Parkı,28.8755047140388,41.0475279588807,KAZIM KARABEKİR,ESENLER
Menderes Bölge Parkı,28.8733599420353,41.0414941000764,MENDERES,ESENLER
Atatürk Parkı-1,29.0780397754996,40.9987473070554,ÖRNEK,ATAŞEHİR
Can Parkı,29.1463430035806,40.9903996108919,YENİŞEHİR,ATAŞEHİR
Pir Sultan Parkı,29.1173884350908,40.9682746766342,İÇERENKÖY,ATAŞEHİR
Zabıta Parkı,29.3049292381343,40.8204668307079,POSTANE,TUZLA
Yeniköy Camii Parkı,29.0697936524871,41.121719696031,YENİKÖY,SARIYER
Kemal Şahin Parkı,29.0654889423102,41.1174865941078,YENİKÖY,SARIYER
Çocuk Parkı,29.0538813570647,41.1195833682009,İSTİNYE,SARIYER
Şenlikdede Parkı,28.9992042216735,41.0441911348178,VİŞNEZADE,BEŞİKTAŞ
Abbasağa Parkı,29.0061944274384,41.0466777420807,CİHANNÜMA,BEŞİKTAŞ
Terazidere Parkı,28.8973055436646,41.030892476066,NAMIK KEMAL,ESENLER
6. Cad. Parkı,28.8751747463837,41.0360186518983,NİNE HATUN,ESENLER
Keyfalan Parkı,29.0011479192326,41.100535858393,SEYRANTEPE,KAĞITHANE
Seyrantepe 700. Yıl Parkı,28.98925570461,41.0970743597684,SEYRANTEPE,KAĞITHANE
Park,29.0543103958122,41.1755103507213,MADEN,SARIYER
Park,28.8962698502698,41.0263197460698,ÇİFTE HAVUZLAR,ESENLER
Park,28.8397445009492,41.021976945805,KOCASİNAN MERKEZ,BAHÇELİEVLER
Kerim Tekin Sok. Parkı,28.8797855026398,41.0059756480533,BAHÇELİEVLER,BAHÇELİEVLER
Bahçelievler Parkı,28.8642958881613,41.0044712388543,BAHÇELİEVLER,BAHÇELİEVLER
Ahmet Dicle Parkı,28.7082197104264,40.9831411452002,CİHANGİR,AVCILAR
Dostluk Parkı,28.800402017396,41.0549972675359,MEHMET AKİF,KÜÇÜKÇEKMECE
Şehit Çetin Can Parkı,29.0375626510459,41.1235398126804,DARÜŞŞAFAKA,SARIYER
Yenigelin Parkı,29.0060662235892,41.0584164971352,DİKİLİTAŞ,BEŞİKTAŞ
Hürriyet Çocuk Parkı,29.091899872133,40.9765099276909,19 MAYIS,KADIKÖY
Kriton Curi Parkı,29.0937852555474,40.9765241537709,19 MAYIS,KADIKÖY
Çocuk Parkı,29.1001653019462,40.9674628339821,KOZYATAĞI,KADIKÖY
Bomaç Sok. Parkı,29.1291389764266,40.9356838322627,ALTAYÇEŞME,MALTEPE
Karayolları Parkı,29.032109580916,41.0097451724734,BARBAROS,ÜSKÜDAR
Şehit Öğretmen Mustafa Gümüş Parkı,28.9021999694432,41.0746094112815,YENİ MAHALLE,GAZİOSMANPAŞA
Selim Ayaydın Parkı,28.8582951771469,40.9983912590388,BAHÇELİEVLER,BAHÇELİEVLER
Kıbrıs Parkı,28.8639445073619,41.0000357658012,BAHÇELİEVLER,BAHÇELİEVLER
Kerim Tekin Parkı,28.8335807243688,41.0135246028144,ZAFER,BAHÇELİEVLER
Soğanlı Cumhuriyet Mahallesi Parkı,28.8523423659154,41.0204612642173,CUMHURİYET,BAHÇELİEVLER
Tuğra Park,28.8311851959184,41.0173932923817,YENİBOSNA MERKEZ,BAHÇELİEVLER
Şehit Vedat Ulusoy Parkı,28.8292137865469,41.0128823234046,YENİBOSNA MERKEZ,BAHÇELİEVLER
Çeşme Parkı,29.1117126087035,40.9694775871301,İÇERENKÖY,ATAŞEHİR
Sevgi Çiçeği Parkı,29.1473977656531,40.9752886333204,İNÖNÜ,ATAŞEHİR
Gülbahar Parkı,29.1213710680047,40.9797553108467,KÜÇÜKBAKKALKÖY,ATAŞEHİR
Erguvan Barış Parkı,29.1197949683158,40.9872107552166,KÜÇÜKBAKKALKÖY,ATAŞEHİR
Balmumcu Parkı,29.0150522583818,41.0595251016686,BALMUMCU,BEŞİKTAŞ
Cihannuma Parkı,29.0075281591929,41.0496043045004,CİHANNÜMA,BEŞİKTAŞ
Atakan Sok. Parkı,28.9934981784771,41.0702355004734,MECİDİYEKÖY,ŞİŞLİ
Osman Gazi Parkı,29.3016598770546,40.8195458997071,POSTANE,TUZLA
Topel Sok. Parkı,28.9737883836276,41.0554389170837,PAŞA,ŞİŞLİ
Bezirganbahçe Parkı,28.7762320680977,41.0289909496862,İSTASYON,KÜÇÜKÇEKMECE
Park,29.1090956888875,41.2320212516742,RUMELİFENERİ,SARIYER
Muhtar Ibrahim Sağ Parkı,29.0324692034924,41.0752400339973,KÜLTÜR,BEŞİKTAŞ
Levent Huzurevi Parkı,29.0169970817659,41.0812596455893,LEVENT,BEŞİKTAŞ
Oto Center Meslek Lisesi Yanı Parkı,28.8514066492403,41.057973313749,100. YIL,BAĞCILAR
Fatih Parkı,28.9788039611073,41.093987288133,HAMİDİYE,KAĞITHANE
Şehit Cemal Tüfekçioğlu Park,29.0343828814444,41.0013542850684,ACIBADEM,KADIKÖY
Uğurkent Parkı,29.316158546209,40.8323859162925,İSTASYON,TUZLA
Babil Parkı,29.0279726544565,41.0823098685955,AKAT,BEŞİKTAŞ
Cumhuriyet Parkı,28.8194408611932,41.0081659131697,YENİBOSNA MERKEZ,BAHÇELİEVLER
Kadir Has Parkı,28.8290387332682,41.0170039347766,YENİBOSNA MERKEZ,BAHÇELİEVLER
Göl Boyu Parkı,29.2893632682963,40.8223141788907,POSTANE,TUZLA
Yürüyüş Parkı,29.1160251476952,40.9702362236314,İÇERENKÖY,ATAŞEHİR
Aşık Veysel Parkı,29.0857276368123,40.998666615659,ESATPAŞA,ATAŞEHİR
1054 Ada Parkı (Meyveli Park),28.6203091360877,40.9855777342118,DEREAĞZI,BEYLİKDÜZÜ
Otoparküstü Parkı,29.0112015429906,41.0635734305643,ESENTEPE,ŞİŞLİ
Nasrettin Hoca Parkı,28.8051435344903,41.0223206207735,İNÖNÜ,KÜÇÜKÇEKMECE
Şehit Piyade Er Lokman Eker Parkı,28.798370010547,41.0262008588878,İNÖNÜ,KÜÇÜKÇEKMECE
Mehmet Akif Ersoy Parkı,28.7917913966564,41.0338755224772,HALKALI MERKEZ,KÜÇÜKÇEKMECE
İBB Fetih Parkı,28.9254307077349,41.084302415575,AKŞEMSETTİN,EYÜPSULTAN
Kekava Sok. Parkı,28.5347471895273,40.9933169157294,SİNANOBA,BÜYÜKÇEKMECE
Ulus Depo Parkı,29.0261423492791,41.0723335796974,NİSBETİYE,BEŞİKTAŞ
Ataşehir Parkı,29.1370067995804,40.9907701653538,ATATÜRK,ATAŞEHİR
Ilgın Park,29.1332539444714,40.9844400645124,ATATÜRK,ATAŞEHİR
A. Yavuz Koca Omer Parkı,29.0331526433221,41.0738405191318,KÜLTÜR,BEŞİKTAŞ
Şehit Polis Metehan Şahbaz Parkı,28.8666418710842,41.1004817637639,UĞUR MUMCU,SULTANGAZİ
Zekeriyaköy Parkı,29.0292390547857,41.197364705885,ZEKERİYAKÖY,SARIYER
Nasrettin Hoca Parkı,28.848417164675,41.0511810138011,KEMALPAŞA,BAĞCILAR
Yayla Çocuk Parkı,29.312374589158,40.8302155531374,YAYLA,TUZLA
Zeytinlik Parkı,29.3048685307445,40.8280539297813,YAYLA,TUZLA
Anıt Parkı,29.3626077909793,40.8958013126064,ORHANLI,TUZLA
6. Cad. Parkı,29.4205588343421,40.9244580536248,AKFIRAT,TUZLA
Ceren Parkı,29.3530203252788,40.8965229255533,MESCİT,TUZLA
Doğan Sok. Parkı,29.2993863491769,40.8190316980709,POSTANE,TUZLA
Derya Parkı,29.300834800548,40.8215955004043,POSTANE,TUZLA
19 Mayıs Parkı,28.8887569977195,41.0036978362887,ABDURRAHMAN NAFİZ GÜRMAN,GÜNGÖREN
Ertuğrul Gazi Parkı,28.8789806009231,41.0864043699966,CUMHURİYET,SULTANGAZİ
Park,28.9927701053056,41.0847379916681,HARMANTEPE,KAĞITHANE
Söğüt Sok. Parkı,28.6037325720853,40.9994434806298,PINARTEPE,BÜYÜKÇEKMECE
Lale Parkı,28.9308328064898,41.0865378716245,AKŞEMSETTİN,EYÜPSULTAN
Yunus Emre Parkı,28.9346396448651,41.069140146184,ESENTEPE,EYÜPSULTAN
Huzur Mah. Camii Yanı Parkı,28.9871914355929,41.0998200172885,HUZUR,SARIYER
Kuğlubağ Sok. Parkı,28.9800863844735,41.050793773638,FERİKÖY,ŞİŞLİ
Cumhuriyet Parkı,29.0008494076834,41.116325608539,AYAZAĞA,SARIYER
Dr. Sadık Ahmet Parkı,28.8681299827459,41.034011634046,MERKEZ,BAĞCILAR
Nazif Hafize Hançer Parkı,28.829596636301,41.0341516322542,GÜNEŞLİ,BAĞCILAR
Kamil Aydemir Parkı,28.8640998600627,41.0366358234731,ÇINAR,BAĞCILAR
Güneşli Meydan Parkı,28.8286217680742,41.0309635286772,HÜRRİYET,BAĞCILAR
Yavuz Sultan Selim Parkı,28.8536877443321,41.0343009539101,YAVUZ SELİM,BAĞCILAR
Hayrettin Karaca Parkı,28.991703289156,41.0592315941942,19 MAYIS,ŞİŞLİ
Osmangazi Parkı,28.8912540911226,41.0979157395501,YUNUS EMRE,SULTANGAZİ
Dünya Barış Parkı,29.0030606568121,41.0502533186813,TÜRKALİ,BEŞİKTAŞ
Ambarlıdere Parkı,29.0267090607065,41.0620693499278,ULUS,BEŞİKTAŞ
Geçgel Sok. Parkı,29.0265998527712,41.0651973130783,ULUS,BEŞİKTAŞ
Çetin Emeç Parkı,29.0040411438094,41.052563034566,DİKİLİTAŞ,BEŞİKTAŞ
Ortanca Parkı,28.9783985883434,41.0541033422224,DUATEPE,ŞİŞLİ
Halil Rıfat Paşa Parkı,28.969324320482,41.0569205558764,HALİL RIFAT PAŞA,ŞİŞLİ
Merkez Parkı,28.8576751925353,41.0305951839513,MERKEZ,BAĞCILAR
Kanuni Sultan Süleyman Parkı,28.6721512241493,41.0015501980509,YAKUPLU,BEYLİKDÜZÜ
Mimar Sinan Parkı,28.8543894186835,41.0315847008489,İNÖNÜ,BAĞCILAR
Güneşli Parkı,28.8328360107145,41.0361720647186,GÜNEŞLİ,BAĞCILAR
Ercan Kılıçkaya Parkı,28.8448905914031,41.0286514325785,KAZIM KARABEKİR,BAĞCILAR
Orkide Parkı,29.1576174796564,41.0256484821976,PARSELLER,ÜMRANİYE
Tacettin Özgüder Parkı,29.2454051163676,40.9009851541894,HÜRRİYET,KARTAL
Bahtiyar Konuksan Parkı,29.2437378892481,40.9047639232477,HÜRRİYET,KARTAL
Fatih Sultan Mehmet Parkı,29.1953964265539,41.0188669983714,ÇAMLIK,ÇEKMEKÖY
Dr. Refik Saydam Parkı,29.2204641909993,41.0261391704511,GÜNGÖREN,ÇEKMEKÖY
Soğukpınar Parkı,29.2311964598923,41.0224035474684,SOĞUKPINAR,ÇEKMEKÖY
Bayrak Park,29.6088099266674,41.1668537999431,ÇAVUŞ,ŞİLE
Çocuk Parkı,28.9007211339053,41.076032328509,YENİ MAHALLE,GAZİOSMANPAŞA
Avcılar Merkez Parkı,28.7208652036244,40.9793950071942,MERKEZ,AVCILAR
Park,28.0122138191463,41.0981624428951,İSMETPAŞA,SİLİVRİ
Fevzi Çakmak Bölge Parkı,29.2625852801925,40.8845181245357,FEVZİ ÇAKMAK,PENDİK
Rami Parkı,28.9200816391607,41.0484864524207,RAMİ CUMA,EYÜPSULTAN
Şeyh Şamil Parkı,29.2084794688887,40.930380936225,UĞUR MUMCU,KARTAL
Hayrettin Paşa Parkı,29.2095219098472,40.9328934373056,UĞUR MUMCU,KARTAL
Park,28.2197879167111,41.3576251283197,YAYLACIK,ÇATALCA
Kumru Sok. Parkı,28.9172277456859,41.159406031966,MİMAR SİNAN,EYÜPSULTAN
Güzel Sok. Parkı,28.9342930081823,41.0804528584219,ÇIRÇIR,EYÜPSULTAN
Yenidoğan Parkı,29.2367409690165,41.0124774329782,YENİDOĞAN,SANCAKTEPE
Ceyhan Parkı,29.2387286725345,41.0148782032354,YENİDOĞAN,SANCAKTEPE
İBB Barış Manço Parkı,28.9265128696011,41.0897708264225,AKŞEMSETTİN,EYÜPSULTAN
Çocuk Parkı,28.8919035215751,41.1832775670864,GÖKTÜRK MERKEZ,EYÜPSULTAN
Park,28.8525305263115,41.2352363948877,ODAYERİ,EYÜPSULTAN
Ekrem Isı Parkı,29.1528869410905,41.011765403147,YUKARI DUDULLU,ÜMRANİYE
Fatih Parkı,29.2098542601557,41.0030228967283,SARIGAZİ,SANCAKTEPE
Şehit Abdullah Parkı,29.1552469006799,40.909875725774,ORHANTEPE,KARTAL
Aşık Kerem Parkı,29.0983334017298,41.1279048764874,GÜMÜŞSUYU,BEYKOZ
Zahireci Sok. Parkı,28.9323920658629,41.0426404094781,NİŞANCI,EYÜPSULTAN
Fenerbahçe Parkı,29.0971626003757,41.1154985226997,PAŞABAHÇE,BEYKOZ
Cumhuriyet Mah. Muhtarlığı Yan Parkı,29.2210571484975,40.9075321837685,CUMHURİYET,KARTAL
Aşık Umman Parkı,29.134088445243,41.0110276968991,MEHMET AKİF,ÜMRANİYE
Çimen Sok. Parkı,28.8857057435122,41.1841768591933,GÖKTÜRK MERKEZ,EYÜPSULTAN
Şelale Parkı,29.2131228108874,40.9349738420128,UĞUR MUMCU,KARTAL
Şeyh Edebali Parkı,29.1230643204891,41.0215955857358,FATİH SULTAN MEHMET,ÜMRANİYE
Poligon Parkı,29.1233240523354,41.0233774402722,FATİH SULTAN MEHMET,ÜMRANİYE
Gazeteci Hrant Dink Çocuk Parkı,29.0549701426646,40.9094572762493,KINALIADA,ADALAR
Park,29.2151950745306,40.8800489038409,KORDONBOYU,KARTAL
Şehit Er Tuncay Türken Parkı,28.7652688916644,41.183720899898,BOĞAZKÖY İSTİKLAL,ARNAVUTKÖY
Yunus Emre Parkı,28.7583404658205,41.1817160710048,YUNUS EMRE,ARNAVUTKÖY
Müharrem Gür Parkı,28.9473327093151,41.0766401858472,ALİBEYKÖY,EYÜPSULTAN
Hacı Mahmut Camii Yanı Parkı,29.0227407370072,41.0543005576382,MECİDİYE,BEŞİKTAŞ
Kumru Parkı,29.1799789255594,40.9005061629209,PETROL İŞ,KARTAL
Gazi Osmanpaşa Parkı,28.6724262731054,41.047146641167,ÖRNEK,ESENYURT
Yenişehir Parkı,29.2938975935019,40.9239605561389,YENİŞEHİR,PENDİK
Ulusal Egemenlik Parkı,28.4639748265965,41.1378496667623,FERHATPAŞA,ÇATALCA
Nazım Hikmet Parkı,29.212906591626,41.01019372747,İNÖNÜ,SANCAKTEPE
Açelya Parkı,29.2595365461876,41.0153768194383,MEVLANA,SANCAKTEPE
Cemre Parkı,29.2599107885183,40.9568957697499,ABDURRAHMANGAZİ,SULTANBEYLİ
Çeçenistan Parkı,29.2473575227938,40.9661468239674,HASANPAŞA,SULTANBEYLİ
Bahar Parkı,29.2450182190946,40.9681244192634,HASANPAŞA,SULTANBEYLİ
Erhan Gedikbaşı Parkı,28.935288163036,41.0378401541486,DEFTERDAR,EYÜPSULTAN
Üçtepe Parkı,28.9551750423462,41.0795357176071,GÜZELTEPE,EYÜPSULTAN
Davut Dede Parkı,29.0969004702165,41.0208355848332,İSTİKLAL,ÜMRANİYE
Zübeyde Hanım Parkı,29.22624142942,41.0142260485988,ATATÜRK,SANCAKTEPE
Dolgun Sok. Parkı,28.9326988380809,41.0709192210526,KARADOLAP,EYÜPSULTAN
Molla Gürani Parkı,29.2867237305478,40.9168198893897,KURTKÖY,PENDİK
Misak-i Milli Parkı,29.1070430160505,41.0192437576354,ATAKENT,ÜMRANİYE
Yıldıray Parkı,29.0883890667118,41.0214935900007,NAMIK KEMAL,ÜMRANİYE
Söğütlü Parkı,29.212423427306,40.9267874513722,UĞUR MUMCU,KARTAL
661. Sok. Parkı,28.6823989174081,41.0386927748251,YENİKENT,ESENYURT
Park,29.126098025926,41.090637459003,FATİH,BEYKOZ
80. Yıl Cumhuriyet Parkı,28.8892190875539,41.1787494694975,GÖKTÜRK MERKEZ,EYÜPSULTAN
Kadınlar Pazarı Yeşil Alan,28.9551938228267,41.0173623711606,ZEYREK,FATİH
Başakşehir Göçmen Konutları Parkı,28.7994909422468,41.1019016725669,BAŞAK,BAŞAKŞEHİR
Atatürk Parkı,28.6167757849013,41.1570851396166,HASTANE,ARNAVUTKÖY
Abdurrahmangazi Camii Parkı,29.2565683236196,40.9687640845337,ABDURRAHMANGAZİ,SULTANBEYLİ
Barış Parkı,29.0886848698613,41.0234207329369,NAMIK KEMAL,ÜMRANİYE
Şehit Yalçın Dursun Parkı,29.0923889929717,41.0160048585181,ESENEVLER,ÜMRANİYE
Safiye Akçasoy Parkı,29.0890025902612,41.01344858316,ESENEVLER,ÜMRANİYE
Nevbahar Parkı,28.6913575574245,41.3387682110705,KARABURUN,ARNAVUTKÖY
Şehit Metin Kaya Parkı,28.9247569172142,41.0799927354777,YEŞİLPINAR,EYÜPSULTAN
Yeşilpınar Bölge Parkı,28.9213454843231,41.0812070619369,YEŞİLPINAR,EYÜPSULTAN
Girne-2 Parkı,28.9194633991439,41.0804450835959,YEŞİLPINAR,EYÜPSULTAN
Çeşme Parkı,29.1099959904906,41.0423156646004,İNKILAP,ÜMRANİYE
Şair Nesimi Parkı,29.1002495230876,41.0214349951922,İSTİKLAL,ÜMRANİYE
Jandarma Üst Parkı,28.6818222450678,41.0663044404971,BAHÇEŞEHİR 2. KISIM,BAŞAKŞEHİR
Esenkent Atatürk Yürüyüş Parkı,28.670560715396,41.059512413109,AŞIK VEYSEL,ESENYURT
Şamlar Parkı,28.7552889954187,41.125459887889,ŞAMLAR,BAŞAKŞEHİR
Park,29.052665810579,41.0605519461389,KULELİ,ÜSKÜDAR
Park,29.0572445806486,41.0682988184557,KANDİLLİ,ÜSKÜDAR
Güven Parkı,29.2578577565653,41.0185854768806,YUNUS EMRE,SANCAKTEPE
Dragos Parkı,29.1505833180156,40.9090971120686,ORHANTEPE,KARTAL
Özkan Parkı,29.2387490589345,40.9040488325532,HÜRRİYET,KARTAL
Park,28.2729451323535,41.0653217707036,CUMHURİYET,SİLİVRİ
Kavaklı Parkı,28.3368086126519,41.095937879151,HÜRRİYET,SİLİVRİ
Duru Parkı,29.1033705473093,41.0123287444741,ATAKENT,ÜMRANİYE
Lalegül Parkı,29.1045091903658,41.018705364745,ATAKENT,ÜMRANİYE
Hasan Basri Parkı,29.2293370945795,40.9685720069152,AKPINAR,SANCAKTEPE
Akpınar Parkı,29.2314847006118,40.9711458547208,AKPINAR,SANCAKTEPE
Aytemur Parkı,29.2360023916725,40.9690905034506,AKPINAR,SANCAKTEPE
Şehit Yücel Urun Parkı,29.2164413492006,40.9573520165923,FATİH,SANCAKTEPE
Park,29.2508918476371,41.1842776177743,PAŞAMANDIRA,BEYKOZ
Park,29.2914067962787,41.1592302117865,KILIÇLI,BEYKOZ
65. Yıl Parkı,29.0791777023759,41.0701574256059,YENİ MAHALLE,BEYKOZ
Park,29.0888557398923,41.0935508664158,KAVACIK,BEYKOZ
Şehit Polis Mustafa Yazıcı Parkı,29.089090093746,41.0933181971699,KAVACIK,BEYKOZ
Erguvan Parkı,29.0964907261943,41.0929317102425,RÜZGARLIBAHÇE,BEYKOZ
Şehit Mehmet Altay Parkı,29.2447489970946,40.8916272291511,ORTA,PENDİK
Park,28.0132139347939,41.1022706232377,İSMETPAŞA,SİLİVRİ
Park,28.3026040810236,41.2233017970167,BEKİRLİ,SİLİVRİ
Park,28.2630582703154,41.2002719199399,KURFALLI,SİLİVRİ
Ihlamur Aile Çay Bahçesi ve Parkı,28.6493616952051,41.0172976909812,CUMHURİYET,ESENYURT
İSKİ Parkı,28.6505795408668,41.0399429559266,OSMANGAZİ,ESENYURT
Dikili Ağaç Parkı,28.9220042146648,41.0529508730651,İSLAMBEY,EYÜPSULTAN
Olimpiyat Parkı,28.8370032110505,40.9599118231155,YEŞİLKÖY,BAKIRKÖY
Kızılay Parkı,28.8467398028719,40.9993694020091,ŞİRİNEVLER,BAHÇELİEVLER
Mefkure Parkı,28.8833744331365,41.0309098855439,GENÇOSMAN,GÜNGÖREN
Huzur Parkı,29.2993937997726,40.8420526723973,EVLİYA ÇELEBİ,TUZLA
Sadegül Sokak Parkı,28.6193939487922,41.1513996083801,HASTANE,ARNAVUTKÖY
İstiklal Parkı,28.732864694309,41.1829450934962,ARNAVUTKÖY MERKEZ,ARNAVUTKÖY
23 Nisan Parkı,28.7659913750438,41.2021124509949,MAVİGÖL,ARNAVUTKÖY
Hamidiye Parkı,28.7198852403298,41.1956325675576,TAŞOLUK,ARNAVUTKÖY
Yeniköy Parkı,28.7179517679938,41.3168492717392,YENİKÖY,ARNAVUTKÖY
Görgülü Çukur Parkı,28.8930288767384,41.0139639666886,TOZKOPARAN,GÜNGÖREN
Park,28.8727416791965,41.0249959954678,MERKEZ,GÜNGÖREN
Divane Zülfer Parkı,29.2474540947029,40.8920926885237,DUMLUPINAR,PENDİK
Şehit Yarbay Cesur Parkı,28.8488215044845,40.9961371304828,ŞİRİNEVLER,BAHÇELİEVLER
Mahmutbey 1. Sok. Parkı,28.8444211888974,40.9961594416342,ŞİRİNEVLER,BAHÇELİEVLER
Papatya Parkı,29.088571535396,41.0052427023989,ESATPAŞA,ATAŞEHİR
Esatpaşa Parkı,29.083243034024,41.004797225494,ESATPAŞA,ATAŞEHİR
Çınar Parkı,29.0869924092177,40.9995563689603,ESATPAŞA,ATAŞEHİR
Akşemsettin Parkı,29.0843631703131,40.9985642678634,ESATPAŞA,ATAŞEHİR
Park,28.92261759098,41.0664481541634,YILDIZTABYA,GAZİOSMANPAŞA
Çanakça Köyü Parkı,28.4977563801534,41.2494172681686,ÇANAKÇA,ÇATALCA
Örencik Park,28.4773591795172,41.3270968399048,ÖRENCİK,ÇATALCA
Çiftlikköy Mah. Park-1,28.4086067314331,41.3372829478436,ÇİFTLİKKÖY,ÇATALCA
Park,29.4741433238029,41.0696756234771,BIÇKIDERE,ŞİLE
Çocuk Parkı,29.6087629316353,41.1772046199496,HACI KASIM,ŞİLE
Ağlayan Kayalar Parkı,29.8456749652982,41.1353985727154,AĞVA MERKEZ,ŞİLE
Vadi İçi Parkı,29.6122815706585,41.1788434817075,BALİBEY,ŞİLE
Şehit Murat Yetkin Parkı,28.8794339341015,41.0166956826507,SANAYİ,GÜNGÖREN
Kışla Sok. Dinlenme Alanı,28.8838626385493,41.0288415146825,GENÇOSMAN,GÜNGÖREN
Fırat Sok. Parkı,28.9219670303757,41.1625927441917,MİTHATPAŞA,EYÜPSULTAN
Park,28.5221584021705,41.0348218300501,TÜRKOBA,BÜYÜKÇEKMECE
Çocuk Parkı,28.9804108844218,41.089489990992,HAMİDİYE,KAĞITHANE
Öğretmenler Parkı,29.0138988161305,41.0177114366434,SALACAK,ÜSKÜDAR
Gonca Gül Parkı,29.0306099104477,41.0233466348524,MURATREİS,ÜSKÜDAR
Kasımağa Parkı,29.0251029452288,41.0178189093038,VALİDE-İ ATİK,ÜSKÜDAR
Ferah Parkı,29.0754166283038,41.0274888796549,KISIKLI,ÜSKÜDAR
Irmak Parkı,29.0777110232843,41.0350371250072,FERAH,ÜSKÜDAR
Çocuk Parkı,28.1414256945158,41.2839073837069,ÇAYIRDERE,SİLİVRİ
Park,28.4477557620289,41.0363187901564,KAMİLOBA,BÜYÜKÇEKMECE
Küçüksu Parkı,29.0696228393509,41.0691320812723,KÜÇÜKSU,ÜSKÜDAR
Millet Parkı,29.0538042620296,41.0233690574451,BURHANİYE,ÜSKÜDAR
Park,29.0329149732051,40.9820268143579,CAFERAĞA,KADIKÖY
Çocuk Parkı,28.532028557762,41.0162480270227,MURAT ÇESME,BÜYÜKÇEKMECE
Park,28.6083256098895,40.9990551949784,PINARTEPE,BÜYÜKÇEKMECE
Park,29.0964959268588,41.0070329507021,AŞIKVEYSEL,ATAŞEHİR
Park,29.0929776075026,41.0212414906395,NAMIK KEMAL,ÜMRANİYE
Çocuk Parkı,28.3669979744027,41.0532525015358,SELİMPAŞA,SİLİVRİ
Mareşal Fevzi Çakmak Parkı,29.0898062234692,41.1766247130677,ANADOLU KAVAĞI,BEYKOZ
Çocuk Parkı,28.2228105866053,41.0794190470679,MİMAR SİNAN,SİLİVRİ
Çocuk Parkı,28.011416873596,41.1006364363085,İSMETPAŞA,SİLİVRİ
Kartal Botanik Bahçesi,28.6712255391941,41.0660828980997,BAHÇEŞEHİR 2. KISIM,BAŞAKŞEHİR
Fatih Tarakça Parkı,29.1199718681832,40.9438569142996,İDEALTEPE,MALTEPE
Aygaz Parkı,29.0128831955134,41.2046424270541,ZEKERİYAKÖY,SARIYER
Yağmur Parkı,29.1660268091083,40.9138983978533,CEVİZLİ,KARTAL
Fethiye Sok. Parkı,29.1510702312767,40.9099544414295,YALI,MALTEPE
Çocuk Parkı,28.0875011901919,41.0765852682041,SANCAKTEPE,SİLİVRİ
Şehit Anneleri Vakif Parkı,29.1027507636275,40.9491388996623,KÜÇÜKYALI MERKEZ,MALTEPE
Sağlık Ocağı Parkı,29.1285708170843,40.9494415915538,AYDINEVLER,MALTEPE
Hasan Tahsin Parkı,28.7147004756521,41.1839790709556,KARLIBAYIR,ARNAVUTKÖY
Park,29.7752977503553,41.1420993630776,BOZGOCA,ŞİLE
Çocuk Parkı,28.2496430477977,41.0742892883871,ALİBEY,SİLİVRİ
Çocuk Parkı,29.4595865273269,40.9737853635186,GÖÇBEYLİ,PENDİK
Toros Parkı,29.1524387120293,40.9213559222134,CEVİZLİ,MALTEPE
Park,29.1928575253252,40.9037925755221,ESENTEPE,KARTAL
75. Yıl Parkı,28.801040288419,41.0092841390663,TEVFİKBEY,KÜÇÜKÇEKMECE
Barış Parkı,28.7921729835978,41.0257832561889,İNÖNÜ,KÜÇÜKÇEKMECE
Çocuk Parkı,28.6841402188921,41.0457848470414,SÜLEYMANİYE,ESENYURT
Çocuk Parkı,28.8040057173404,41.0213989907059,İNÖNÜ,KÜÇÜKÇEKMECE
Adem Yavuz Parkı,29.0808200096276,41.01177431665,CUMHURİYET,ÜSKÜDAR
Çocuk Parkı,28.5978769641875,41.004144556686,PINARTEPE,BÜYÜKÇEKMECE
Şehitler Parkı,28.971915999559,41.0710128994151,GÜRSEL,KAĞITHANE
Akasya Parkı,28.9750445775058,41.0947971286819,HAMİDİYE,KAĞITHANE
Çocuk Parkı,28.8983386228294,41.0730029852851,YENİ MAHALLE,GAZİOSMANPAŞA
Dutdibi Parkı,29.0782039289516,41.0102362669898,CUMHURİYET,ÜSKÜDAR
Çocuk Parkı,28.8976179340627,41.0341211880221,TERAZİDERE,BAYRAMPAŞA
Yakut Parkı,28.86890189548,40.9782691388396,ZEYTİNLİK,BAKIRKÖY
Park,29.0486403848958,41.0952998258389,BALTALİMANI,SARIYER
Namazgah Parkı,29.0779529746233,41.02291894943,KISIKLI,ÜSKÜDAR
Park,29.1309240680348,40.9992439330099,TATLISU,ÜMRANİYE
Çocuk Parkı,29.028763954014,41.0307468579422,İCADİYE,ÜSKÜDAR
Sağlıklı Yaşam Parkı,28.8633032835064,41.0031887117647,BAHÇELİEVLER,BAHÇELİEVLER
Şair Nedim Parkı,29.1386753784103,41.0193424040991,IHLAMURKUYU,ÜMRANİYE
Park,28.8342473662155,41.0200279816245,KOCASİNAN MERKEZ,BAHÇELİEVLER
Hatice Küçük Parkı,28.8736744637177,40.997365712952,KARTALTEPE,BAKIRKÖY
Şehit Er İlhan Yalçın Parkı,28.8863761257496,40.9909356557047,OSMANİYE,BAKIRKÖY
Yıldız Parkı,29.0066461564474,41.0766609189462,ORTABAYIR,KAĞITHANE
Dr. İsmet Öztürk Sok. Parkı,28.9920902076266,41.0610816952308,19 MAYIS,ŞİŞLİ
Gayrettepe Emniyet Altı Parkı,29.0013499818534,41.0624873186513,FULYA,ŞİŞLİ
Fenerbahçe Parkı,29.0344393947823,40.9679093993689,FENERBAHÇE,KADIKÖY
Hürriyet Parkı,28.6726807370976,40.9794605424331,MARMARA,BEYLİKDÜZÜ
"Mehmet Akif Ersoy Parkı
Mehmet Akif Ersoy Parkı",28.8442860969185,41.0158069995698,KOCASİNAN MERKEZ,BAHÇELİEVLER
Siyavuşpaşa Parkı,28.8536184417796,40.99583474331,SİYAVUŞPAŞA,BAHÇELİEVLER
Güzelce Sok. Parkı,28.9472194802154,41.0828371227622,ALİBEYKÖY,EYÜPSULTAN
Emniyettepe Parkı ve Çay Bahçesi,28.9513482122382,41.0688249397363,EMNİYETTEPE,EYÜPSULTAN
Kardelen Parkı,28.9276578777247,41.0767739295161,KARADOLAP,EYÜPSULTAN
Hostes Mümine Bulut Parkı,28.6370022624954,40.9802030036144,KAVAKLI,BEYLİKDÜZÜ
Kadir Topbaş Parkı,28.4646008349158,41.033438060138,KUMBURGAZ,BÜYÜKÇEKMECE
Karadolap Parkı ve Spor Kompleksi,28.9319943463585,41.0743356554603,KARADOLAP,EYÜPSULTAN
Şimşek Sok. Parkı,28.9177857695956,41.0763536451743,YEŞİLPINAR,EYÜPSULTAN
Papatya Parkı,28.9090677539727,41.0954443323381,75. YIL,SULTANGAZİ
Yeni Camii Yanı Parkı,28.8368090004082,41.0283351562286,BARBAROS,BAĞCILAR
Evren Mahalle Konak Parkı,28.8207498886042,41.0376210551569,15 TEMMUZ,BAĞCILAR
Veysel Karani Camii Yanı Parkı,28.8546327688883,41.0506144108538,KEMALPAŞA,BAĞCILAR
Şelaleli Parkı,28.8355335712411,41.0316557042224,KİRAZLI,BAĞCILAR
Sancaktepe Parkı,28.8540768588085,41.0408571800827,SANCAKTEPE,BAĞCILAR
Arısal Park,28.5411234312447,40.9927855504383,SİNANOBA,BÜYÜKÇEKMECE
Uğur Mumcu Cad. Parkı,28.5376258530114,41.0040613402588,MİMAROBA,BÜYÜKÇEKMECE
Ensar Parkı,28.9129384972978,41.0518291350096,RAMİ YENİ,EYÜPSULTAN
İBB Gecekondu Mesken Parkı,28.9591652720318,41.081725431524,GÜZELTEPE,EYÜPSULTAN
Şelaleli Parkı,28.8642119272276,41.0247788096942,GÜNEŞTEPE,GÜNGÖREN
Kalebaşı Parkı,29.0793692629151,41.0069032420952,ESATPAŞA,ATAŞEHİR
Adnan Menderes Parkı,28.7418880070772,40.9794216112009,GÜMÜŞPALA,AVCILAR
Florya Sahil Parkı,28.7926952795776,40.9697961169713,ŞENLİKKÖY,BAKIRKÖY
Muhtarlık Parkı,28.8706904607834,40.9872430557692,ZUHURATBABA,BAKIRKÖY
Enver Adakan Parkı,28.6498807516646,41.0024511345881,BARIŞ,BEYLİKDÜZÜ
Park,29.0284869316167,40.9801879944323,CAFERAĞA,KADIKÖY
Park,28.8639336486762,41.0188599647447,MAREŞAL ÇAKMAK,GÜNGÖREN
Osmanbey Evleri Parkı,28.8755835215134,41.0245796040401,MERKEZ,GÜNGÖREN
Arena Park,28.6069236784275,40.996319529801,PINARTEPE,BÜYÜKÇEKMECE
Ferah Sokağı Parkı,28.8770326581784,41.0851695366013,CUMHURİYET,SULTANGAZİ
Belediye Parkı,28.6506250261829,41.0106180144697,BARIŞ,BEYLİKDÜZÜ
Yaşar Acar Parkı,28.6488059298929,40.9935040987444,BARIŞ,BEYLİKDÜZÜ
Barış Manço Parkı,28.6448315593173,41.0119590549193,BÜYÜKŞEHİR,BEYLİKDÜZÜ
30 Ağustos Parkı,28.891202091103,41.0048817468009,ABDURRAHMAN NAFİZ GÜRMAN,GÜNGÖREN
Gazi Yüzbaşı Salih Çamoğlu Parkı,28.6489532627687,41.0040903590961,BÜYÜKŞEHİR,BEYLİKDÜZÜ
Fazilet Parkı,28.9814090644691,41.0820266600333,ÇAĞLAYAN,KAĞITHANE
Yaşam Parkı,29.0352208445743,41.0076477371298,KOŞUYOLU,KADIKÖY
Park,29.0475386877327,40.9902980472162,EĞİTİM,KADIKÖY
Çocuk Parkı,29.0596097538008,40.9738876815439,GÖZTEPE,KADIKÖY
Çınarlı Parkı,29.2399359376688,40.8913228485491,ÇINARDERE,PENDİK
Aşık Veysel Parkı,29.0375448435866,41.0949688963221,FATİH SULTAN MEHMET,SARIYER
Karakol Üstü Parkı,29.0421542749618,41.0946437951383,FATİH SULTAN MEHMET,SARIYER
Mehmet Sait Parkı,28.8752846205506,40.9916752772061,KARTALTEPE,BAKIRKÖY
Köroğlu İsmail Parkı,28.7090380539092,41.0121753216255,FİRUZKÖY,AVCILAR
Çağlayan Parkı,28.9825475487099,41.0681991044046,MERKEZ,ŞİŞLİ
Gülistan Parkı,28.9946483869718,41.0807140092506,GÜLTEPE,KAĞITHANE
Narçiçeği Parkı,28.9671353098829,41.0798231769568,NURTEPE,KAĞITHANE
Sümer Sok. Parkı,29.3032936121885,40.8211204769638,POSTANE,TUZLA
Çocuk Parkı,29.323502647319,40.8646896060429,AYDINLI,TUZLA
Ahmet Yesevi Parkı,28.7157011743796,40.9728420487821,AMBARLI,AVCILAR
Osmangazi Parkı,29.3010896263297,40.8193498533013,POSTANE,TUZLA
Şehit N. Ayhan Akbaba Parkı,29.1510851873653,40.9201541791716,CEVİZLİ,MALTEPE
G-24 Sok. Parkı,29.003344247563,41.1184911684555,AYAZAĞA,SARIYER
Barış Manço Parkı,29.3616674689198,40.8408739644146,MİMAR SİNAN,TUZLA
Manolya-2 Park,29.1235403274881,40.9814793336318,KÜÇÜKBAKKALKÖY,ATAŞEHİR
Tümer Sok. Parkı,29.2271408204115,40.8857132114348,YENİ,PENDİK
Arı Sok. Parkı,29.0337746905263,41.1299330041792,ÇAMLITEPE,SARIYER
Mimar Sinan Parkı,29.053337034282,41.1259317978456,YENİKÖY,SARIYER
Nilüfer Parkı,28.9973441627075,41.084598207233,ÇELİKTEPE,KAĞITHANE
Çiçek Parkı,29.0004963084127,41.0861659276787,ÇELİKTEPE,KAĞITHANE
Üsküp Parkı,28.9999494073491,41.0855120350728,ÇELİKTEPE,KAĞITHANE
Nergis Parkı,29.0886829958127,40.9890616799636,YENİSAHRA,ATAŞEHİR
Süleyman Özyiğit Parkı,29.1799932476484,40.9770346884138,FERHATPAŞA,ATAŞEHİR
Şekerevler Bahar Parkı,29.1105573456834,40.9753685532586,İÇERENKÖY,ATAŞEHİR
Duatepe Parkı,29.0512304257757,41.0875629177082,RUMELİ HİSARI,SARIYER
702. Sok. Parkı,28.8602757067251,41.0463074765548,TUNA,ESENLER
Alaaddin Kadayıfçıoğlu Parkı,28.8556154710843,41.0543509753129,TUNA,ESENLER
Sultan Murat Parkı,28.7857045163218,40.9987147410373,YEŞİLOVA,KÜÇÜKÇEKMECE
Şehit Gaffar Okkan Parkı,28.7838924420673,40.9878229681901,CENNET,KÜÇÜKÇEKMECE
Şehit Murat Kalyoncu Parkı,28.7962229977338,41.0018020242297,KEMALPAŞA,KÜÇÜKÇEKMECE
Şehit Engin Danyıldız Parkı,28.9285802634225,41.0635685067226,YILDIZTABYA,GAZİOSMANPAŞA
Başkanlık Parkı,28.916434703016,41.057859112005,MERKEZ,GAZİOSMANPAŞA
Manolya Parkı,29.0065451309177,41.0532267087863,DİKİLİTAŞ,BEŞİKTAŞ
Dutluk Parkı,29.0056543265537,41.0614999932816,GAYRETTEPE,BEŞİKTAŞ
Menkeşe Parkı,28.9820695583844,41.0917974307682,HAMİDİYE,KAĞITHANE
Altınay Parkı,28.9873735902892,41.0938952036746,SEYRANTEPE,KAĞITHANE
Çilekli Sok. Parkı,28.9194277229214,41.0564021305394,SARIGÖL,GAZİOSMANPAŞA
Park,29.3186273646017,40.8275578210669,İSTASYON,TUZLA
Batakçalı Parkı,29.3225981405789,40.8304341232735,İSTASYON,TUZLA
Çocuk Parkı,28.8403383724833,41.0063072908781,HÜRRİYET,BAHÇELİEVLER
Kamelya Parkı,29.1214503140775,40.9827023055858,KÜÇÜKBAKKALKÖY,ATAŞEHİR
Park,29.1155800633408,40.9816901822886,KÜÇÜKBAKKALKÖY,ATAŞEHİR
Yıldız Camii Yanı Parkı,28.6051855028566,40.9760655908382,DEREAĞZI,BEYLİKDÜZÜ
Kahveler Yanı Parkı,29.0322602354812,41.1685547804266,KOCATAŞ,SARIYER
Mavi Bloklar Parkı,28.9708763628808,41.0641715855406,KAPTANPAŞA,ŞİŞLİ
Kuyu Sok. Parkı,28.9780122681881,41.0553182763972,PAŞA,ŞİŞLİ
Uğur Mumcu Parkı,28.7080962191104,40.9861022487424,CİHANGİR,AVCILAR
Şehit Mahmut Ergül Parkı,28.7932148958085,40.9951928656722,GÜLTEPE,KÜÇÜKÇEKMECE
Kardeşlik Parkı,28.7852367485839,41.0243474315932,SÖĞÜTLÜ ÇEŞME,KÜÇÜKÇEKMECE
Şehit Piyade Er Yavuz Öztürk Parkı,28.7747586660646,41.0009712284324,CUMHURİYET,KÜÇÜKÇEKMECE
Avasköyü Yolu Mah. Parkı,28.8927469514714,41.0609572837039,YILDIRIM,BAYRAMPAŞA
Park,29.0569586588627,41.2353945401745,DEMİRCİKÖY,SARIYER
15 Temmuz Şehit Ramazan Sarıkaya Parkı,28.8373206365013,41.0407980786977,YENİMAHALLE,BAĞCILAR
Namık Kemal Parkı,28.8445704047104,41.0394134474654,KİRAZLI,BAĞCILAR
Park,28.8685151332217,41.047690372072,BİRLİK,ESENLER
Akşemsettin Parkı,29.3143552207641,40.8252592163329,İSTASYON,TUZLA
Aşçıbaşı Parkı,28.9337763948638,41.0395054292718,NİŞANCI,EYÜPSULTAN
Dedeman Parkı,29.048153911002,41.1300464636012,FERAHEVLER,SARIYER
Veysel Karani Can Parkı,28.8258232545998,41.1341004672619,ESKİ HABİPLER,SULTANGAZİ
Cemre Çocuk Parkı,28.9915747432658,41.0840917907358,HARMANTEPE,KAĞITHANE
Acı Yonca Parkı,28.9884408126742,41.0888822592038,ŞİRİNTEPE,KAĞITHANE
Atılım Parkı,28.5890159318535,41.0216205873781,FATİH,BÜYÜKÇEKMECE
2. Heykel Parkı,28.5850024831247,41.0176053968492,FATİH,BÜYÜKÇEKMECE
Güzel Yayla Parkı,28.6074803617522,41.0240846774903,FATİH,BÜYÜKÇEKMECE
Pınartepe Sahil Parkı,28.5977962662641,41.0031238787311,PINARTEPE,BÜYÜKÇEKMECE
Lavanta Parkı,29.2835197808806,40.8244319458914,POSTANE,TUZLA
Bosnalı Çocuklar Parkı,28.9438163906596,41.0729077094003,ESENTEPE,EYÜPSULTAN
Aletli Jimnastik Spor Alanı,29.0560767618664,41.1718838739457,SARIYER MERKEZ,SARIYER
Liseliler Parkı,29.0492480809847,41.1632475854103,BÜYÜKDERE,SARIYER
Çınar Parkı,28.8960920819542,41.1000578025468,YUNUS EMRE,SULTANGAZİ
Şehit İsmail Murat Birol Parkı,28.8699999908876,41.1021623515214,UĞUR MUMCU,SULTANGAZİ
Bostan Sok. Parkı,29.0014628670322,41.049102286218,TÜRKALİ,BEŞİKTAŞ
Mısırlı Bahçe Parkı,29.0007328258102,41.0476224650899,TÜRKALİ,BEŞİKTAŞ
Kurtuluş Camii Altı Parkı,28.9802892261096,41.0444417667136,ESKİŞEHİR,ŞİŞLİ
Türkan Saylan Parkı,29.0341185660466,41.0731694666971,KÜLTÜR,BEŞİKTAŞ
Marmara Parkı,28.6678939936913,40.9832785844594,MARMARA,BEYLİKDÜZÜ
Fikri Göze Parkı,29.0040397598167,41.0611362304791,GAYRETTEPE,BEŞİKTAŞ
Koca Yusuf Parkı,28.8318926821572,41.040152908946,GÜNEŞLİ,BAĞCILAR
Seyit Çavuş Parkı,28.8559482963513,41.0374039793596,SANCAKTEPE,BAĞCILAR
Piri Reis Parkı,28.8251309260032,41.0541316123287,MAHMUTBEY,BAĞCILAR
Antikacılar Parkı,28.9890164985548,41.0676339544811,KUŞTEPE,ŞİŞLİ
Park,29.1157775861398,40.9914573099959,ATATÜRK,ATAŞEHİR
Park,28.5465641790849,41.0319119963463,HÜRRİYET,BÜYÜKÇEKMECE
Şehitler Meydanı Anıtı Parkı,29.6089889276092,41.1738258696928,ÇAVUŞ,ŞİLE
Park,28.9910611415406,41.048150041622,HARBİYE,ŞİŞLİ
Mahmut Şevket Paşa Parkı,28.8223083329662,40.9621730848561,YEŞİLKÖY,BAKIRKÖY
Park,28.6546458100056,41.0338661963918,ŞEHİTLER,ESENYURT
Park,28.9613729561304,41.0542321203292,MEHMET AKİF ERSOY,KAĞITHANE
Park,29.0848296913332,40.97687647864,19 MAYIS,KADIKÖY
Tahtakale Gençlik Parkı,28.7144227391606,41.0657088841038,TAHTAKALE,AVCILAR
Park ,28.8045294988064,41.0229335514638,İNÖNÜ,KÜÇÜKÇEKMECE
Park,29.3562623390519,40.8310108240702,ŞİFA,TUZLA
Park ,28.6079621541953,40.9899100458138,GÜRPINAR,BEYLİKDÜZÜ
Park,29.1409029518353,40.9055239758913,ORHANTEPE,KARTAL
Park,29.1361686089442,40.9104398971025,YALI,MALTEPE
Çocuk Parkı,29.413482580136,41.1198851194327,AVCIKORU,ŞİLE
Park,28.7762834842195,40.9968052399442,YENİ MAHALLE,KÜÇÜKÇEKMECE
Bağcılar Belediyesi Stadyum Parkı,28.8208653151709,41.0589077210333,MAHMUTBEY,BAĞCILAR
Park,29.2151227443527,40.9281233704783,UĞUR MUMCU,KARTAL
Söğütluçayır Parkı,29.081161090753,41.0171719787024,BULGURLU,ÜSKÜDAR
Kaptan Paşa Parkı,28.9368915046408,41.0473084142483,MERKEZ,EYÜPSULTAN
Nezih Özel Parkı,29.0737961184142,41.0166445741483,BULGURLU,ÜSKÜDAR
Park,28.7799772157843,40.9794073278743,BASINKÖY,BAKIRKÖY
Park,29.0354950676301,41.0398400643992,KUZGUNCUK,ÜSKÜDAR
Yeşil Vadi,28.6368645752483,41.0071240479942,CUMHURİYET,BEYLİKDÜZÜ
Çocuk Parkı,28.8704945868221,40.9840455929097,ZUHURATBABA,BAKIRKÖY
Park,28.6575202657918,40.9993085298737,BARIŞ,BEYLİKDÜZÜ
Çocuk Parkı,29.6078561482944,41.1722990576023,ÇAVUŞ,ŞİLE
Vadi Parkı,29.0782938867521,41.011001446619,CUMHURİYET,ÜSKÜDAR
Park,28.4480381872427,41.0361729207843,KAMİLOBA,BÜYÜKÇEKMECE
Park,28.6571385617056,40.9993867668331,BARIŞ,BEYLİKDÜZÜ
Çocuk Parkı,28.4566677106374,41.029872492967,KUMBURGAZ,BÜYÜKÇEKMECE
Maçka Demokrasi Parkı,28.9912156595249,41.044293370969,HARBİYE,ŞİŞLİ
Park,28.6184257413207,40.9956854025523,ADNAN KAHVECİ,BEYLİKDÜZÜ
Park,29.1809463715168,40.8855749217223,KORDONBOYU,KARTAL
M.Asım Hacımustafaoğlu Parkı,28.8600771368083,41.0350635649475,ÇINAR,BAĞCILAR
Park,28.8322488071953,41.0106638639733,ZAFER,BAHÇELİEVLER
Park,28.9746025692176,41.0432847775151,HACIAHMET,BEYOĞLU
Fahrettin Paşa Parkı,28.9130490537466,41.0667317306196,BAĞLARBAŞI,GAZİOSMANPAŞA
Park,28.0106399729367,41.0984826596145,FEVZİPAŞA,SİLİVRİ
Park,28.8896037306487,41.1768441702801,GÖKTÜRK MERKEZ,EYÜPSULTAN
Çetin Emeç Çocuk Parkı,28.9098563336761,41.0000337360805,TELSİZ,ZEYTİNBURNU
Orkide Parkı,28.9141775334472,41.152405239315,MİTHATPAŞA,EYÜPSULTAN
Eris Sitesi Parkı,29.0188590626491,41.0110545184823,SELİMİYE,ÜSKÜDAR
Eris Sitesi Parkı,29.0870997435184,40.9802682531695,19 MAYIS,KADIKÖY
Vezir Parkı,28.9312392221665,41.0110164622981,ŞEHREMİNİ,FATİH
Seyitömer Şelaleli Parkı,28.932694106223,41.0088706026103,SEYYİD ÖMER,FATİH
Park,28.6700079403009,41.1023044708879,BAHÇEŞEHİR 1. KISIM,BAŞAKŞEHİR
Güvercintepe Spor Parkı,28.7449088142146,41.0886620361414,GÜVERCİNTEPE,BAŞAKŞEHİR
Duygu Parkı,29.0016409371536,41.0945125805313,YEŞİLCE,KAĞITHANE
Park,28.8011101149748,41.0114259970865,TEVFİKBEY,KÜÇÜKÇEKMECE
Çocuk Parkı,28.9713983716971,41.0681499187959,GÜRSEL,KAĞITHANE
Bosna Parkı,29.0762841990568,41.0502903518641,GÜZELTEPE,ÜSKÜDAR
Beşiktaş Belediyesi Meyve Bahçesi,29.0286476392601,41.0581503552449,ORTAKÖY,BEŞİKTAŞ
Park,29.0247675196572,41.0609450678521,ULUS,BEŞİKTAŞ
Park,29.0355830406862,41.0148082361991,BARBAROS,ÜSKÜDAR
Park,28.9093667601261,41.0712547948452,FEVZİ ÇAKMAK,GAZİOSMANPAŞA
Park,29.0101788698531,41.0564270315487,BALMUMCU,BEŞİKTAŞ
ODTÜ Parkı,29.0320310215758,41.0689804674655,KÜLTÜR,BEŞİKTAŞ
Park,28.7558111533492,41.1099117455345,KAYABAŞI,BAŞAKŞEHİR
Park,28.7874024102053,41.1137933589281,BAŞAKŞEHİR,BAŞAKŞEHİR
Park,29.0885096052065,40.9979287909798,AŞIKVEYSEL,ATAŞEHİR
Park,29.1178444580155,40.9916069754437,ATATÜRK,ATAŞEHİR
Park,29.1492228252475,40.9909905242918,YENİŞEHİR,ATAŞEHİR
Park,29.1514405131758,40.9346770564573,ZÜMRÜTEVLER,MALTEPE
Maltepe Lunapark,29.1356112116084,40.9209299910048,BAĞLARBAŞI,MALTEPE
Park,28.9986883754114,41.0914775060805,SULTAN SELİM,KAĞITHANE
İnci Parkı,28.9718518883686,41.0659578122733,GÜRSEL,KAĞITHANE
Akdeniz Parkı,29.104992384687,41.0107698170505,ATAKENT,ÜMRANİYE
Park,29.0793474042291,40.9919672490919,ÖRNEK,ATAŞEHİR
Park,29.108111238149,41.02279980182,ATAKENT,ÜMRANİYE
Park,28.2450948355806,41.0743868293548,PİRİ MEHMET PAŞA,SİLİVRİ
Mehmet Emin Parkı,29.0326433809985,41.1446785753878,CUMHURİYET,SARIYER
Küçükçekmece Belediyesi Çocuk Trafik Eğitim Parkı,28.7877301535114,41.0484778864291,ATAKENT,KÜÇÜKÇEKMECE
Park,28.9662786611262,41.0469784545747,PİYALEPAŞA,BEYOĞLU
Dumlupınar Parkı,28.9043566884748,41.0762564936992,YENİ MAHALLE,GAZİOSMANPAŞA
Atsushi Miyazaki Parkı,29.0454193666649,41.1345476602041,FERAHEVLER,SARIYER
Park,29.2767209605987,40.8927202320105,GÜLLÜ BAĞLAR,PENDİK
Park,29.085101835457,40.9727417084242,19 MAYIS,KADIKÖY
Park,29.1939050523949,41.0157951684648,ÇAMLIK,ÇEKMEKÖY
Park,29.0155804787354,41.023387460219,AZİZ MAHMUT HÜDAYİ,ÜSKÜDAR
Park,29.052262332581,41.0560576208657,ÇENGELKÖY,ÜSKÜDAR
Park,28.8618165604053,41.0998330222339,SULTANÇİFTLİĞİ,SULTANGAZİ
Park,29.1128769905156,40.9707620789012,İÇERENKÖY,ATAŞEHİR
Park,29.114724707671,40.9855952798274,KÜÇÜKBAKKALKÖY,ATAŞEHİR
Park,29.1218747593348,40.985964341269,KÜÇÜKBAKKALKÖY,ATAŞEHİR
Park,29.0822072742741,40.9969047712526,ÖRNEK,ATAŞEHİR
Park,28.9203496660381,40.9893133695273,YEDİKULE,FATİH
Park,28.950246299489,41.0312042493014,BALAT,FATİH
Park,28.6338499378741,41.0051857690767,ADNAN KAHVECİ,BEYLİKDÜZÜ
Park,29.0233183979289,41.212034732176,USKUMRUKÖY,SARIYER
Park,29.2236259028405,40.9204297675277,YAKACIK YENİ,KARTAL
Park,29.0272570675403,40.9844836513276,CAFERAĞA,KADIKÖY
Park,29.2237863952892,41.0304906438677,SULTANÇİFTLİĞİ,ÇEKMEKÖY
Park,28.8269512010771,40.998251763533,ÇOBANÇEŞME,BAHÇELİEVLER
Güzeldere Parkı,28.9923480338728,41.0860624259605,ŞİRİNTEPE,KAĞITHANE
Çocuk Parkı ,28.9651079897352,41.0612406689735,TALATPAŞA,KAĞITHANE
Yapma Bebek Parkı,29.0259027016866,41.0285934778897,SULTANTEPE,ÜSKÜDAR
Spor Parkı,28.9067008460682,41.0634892963619,MERKEZ,GAZİOSMANPAŞA
Park,29.0532947301859,41.057437891374,KULELİ,ÜSKÜDAR
Park,29.0306147950875,41.0374015331459,KUZGUNCUK,ÜSKÜDAR
770. Sokak Parkı,28.9074359180575,41.071373489194,FEVZİ ÇAKMAK,GAZİOSMANPAŞA
Gökyüzü Parkı,29.032727485979,41.0098520144204,BARBAROS,ÜSKÜDAR
Park,28.6758115122023,41.0197179070847,AKEVLER,ESENYURT
Park,29.120905051353,40.9858785596749,KÜÇÜKBAKKALKÖY,ATAŞEHİR
Park,28.9156788143128,41.0070297253812,SEYİTNİZAM,ZEYTİNBURNU
Park,29.0992787061896,41.0425366490338,ELMALIKENT,ÜMRANİYE
Park,28.6707990794998,41.0017332591837,YAKUPLU,BEYLİKDÜZÜ
Park,28.2538205042024,41.0694531650233,FATİH,SİLİVRİ
Park,29.0429933678657,41.119314694492,POLİGON,SARIYER
Park,29.0456087250008,41.0879555747641,RUMELİ HİSARI,SARIYER
Kadıköy Parkı,29.0173538260545,40.9909694443211,CAFERAĞA,KADIKÖY
Balkanlar Kültür Parkı,29.2078695731367,40.9134418574805,ORTA,KARTAL
Park,29.1565874191285,40.9010930651371,ORHANTEPE,KARTAL
Sarsılmaz Parkı,28.9669177724345,41.0140651863445,MERCAN,FATİH
Hekimoğlu Ali Paşa Parkı,28.9343099538192,41.0061270974321,CERRAHPAŞA,FATİH
Park,29.2141921365478,40.9289562571169,UĞUR MUMCU,KARTAL
Yedikule Kuş Cenneti Parkı,28.9233724933955,40.9988963531323,YEDİKULE,FATİH
Mermerkule Kara Parkı,28.9256667233523,40.9913268631783,YEDİKULE,FATİH
Silivrikapı Parkı,28.9378701416305,41.0015836365454,CERRAHPAŞA,FATİH
Pierre Loti Parkı,28.9724454964257,41.0073779680487,BİNBİRDİREK,FATİH
Tekfur Saray Parkı,28.9403431529574,41.0335372683048,AYVANSARAY,FATİH
Park,28.5366303249284,41.0075918136761,MİMAROBA,BÜYÜKÇEKMECE
Dr. Metin Alatlı,28.9428093167002,41.0100671466203,HASEKİ SULTAN,FATİH
Mimar Sinan Parkı,28.9627704931094,41.0177232791404,DEMİRTAŞ,FATİH
Park,28.9405005139837,41.0024298440573,CERRAHPAŞA,FATİH
Atatürk Parkı,28.912769577254,41.033822022192,ORTA,BAYRAMPAŞA
Dr. Sümer Çavdar Parkı,28.9142018942243,41.0344339007133,ORTA,BAYRAMPAŞA
Çizmeci Mahalle Parkı,28.9111348642762,41.0388285544826,YENİDOĞAN,BAYRAMPAŞA
Aşevi Karşısı Mahalle Parkı,28.8986083404207,41.041770709095,ALTINTEPSİ,BAYRAMPAŞA
Park,29.2528331755368,40.8695613837517,KAYNARCA,PENDİK
Panorama 1453 Parkı,28.9210381547973,41.0178499803494,MERKEZEFENDİ,ZEYTİNBURNU
Silivrikapı Semt Parkı,28.9237101664394,41.0035905294571,SİLİVRİKAPI,FATİH
Mahmut Celalettin Ökten Meydanı,28.9451049949089,41.034511952427,AYVANSARAY,FATİH
Çarşamba Çukurbostan Parkı,28.94994804412,41.0260673622997,BALAT,FATİH
Özgüven Parkı,28.9330738544886,41.0248426906577,KARAGÜMRÜK,FATİH
Samancı Odaları Çocuk Parkı,28.9260510703445,40.9971625993434,YEDİKULE,FATİH
Molla Şeref Parkı,28.9437684591065,41.0139012640596,MOLLA GÜRANİ,FATİH
Park,28.9409922400282,41.0158146059337,MOLLA GÜRANİ,FATİH
97. Yıl Çevre Parkı,28.8948885067965,41.059618155163,KARTALTEPE,BAYRAMPAŞA
Dr. Fazıl Küçük Parkı,28.9084927987236,41.046707041619,MURATPAŞA,BAYRAMPAŞA
Cezayirli Hasan Paşa Parkı,28.9669791819343,41.0304348207315,BEDRETTİN,BEYOĞLU
75. Yıl Parkı,28.919007202763,41.0015431704055,KAZLIÇEŞME,ZEYTİNBURNU
Park,28.9482070239754,41.0330639264881,AYVANSARAY,FATİH
Park,28.9500630922934,41.0643758612878,MERKEZ,KAĞITHANE
Park,28.9436369259187,41.0322145592682,AYVANSARAY,FATİH
Tomtom Parkı,28.9777723553599,41.0285226575214,TOMTOM,BEYOĞLU
Taksim Gezi Parkı,28.9869655428663,41.0389573369601,GÜMÜŞSUYU,BEYOĞLU
Doğu Coşkun Fırat Parkı,28.8646287322129,40.9774663641848,ATAKÖY 2-5-6. KISIM,BAKIRKÖY
Park,28.8554016799653,40.9824424310148,ATAKÖY 3-4-11. KISIM,BAKIRKÖY
Çocuk Parkı,28.8421388376516,40.9842730304184,ATAKÖY 7-8-9-10. KISIM,BAKIRKÖY
Park,28.9939371365122,41.037679248649,ÖMER AVNİ,BEYOĞLU
Kıbrıs Barış Ormanı Parkı,28.9543763186169,41.0544428121201,ÖRNEKTEPE,BEYOĞLU
Mustafa Yaşar Parkı,28.8814163769824,41.0313887146723,GENÇOSMAN,GÜNGÖREN
130 Sok. Parkı,28.855140428634,41.1081395935026,İSMETPAŞA,SULTANGAZİ
Altıntaş Parkı,29.0738387041881,41.0337082711421,FERAH,ÜSKÜDAR
Atsushi Miyazati Trafik Eğitim ve Savunma Parkı,28.822780321445,41.0031270144679,ÇOBANÇEŞME,BAHÇELİEVLER
Heykel Bitkiler Parkı,28.940424257066,41.0149164260535,MOLLA GÜRANİ,FATİH
Kadın Heykeli Parkı,29.6094220323709,41.1744649622175,ÇAVUŞ,ŞİLE
B. Hayrettin Parkı,29.2573939538359,40.9074340018505,VELİBABA,PENDİK
Parlar Sok. Parkı,29.2270727022967,40.8813323829756,YENİ,PENDİK
Beykoz Burunbahçe Parkı,29.0885246535429,41.1149997633127,PAŞABAHÇE,BEYKOZ
Güvercin-2 Parkı,29.0205872071276,41.0778891237811,LEVENT,BEŞİKTAŞ
Manolya Parkı,29.0801644726775,41.0083037362287,CUMHURİYET,ÜSKÜDAR
Kuzguncuk Parkı,29.0323216487142,41.0323827768868,KUZGUNCUK,ÜSKÜDAR
Kabakulak Parkı,28.9391122678208,41.0233912940985,HIRKA-İ ŞERİF,FATİH
Gazi Dede Çocuk Parkı,28.928328853183,41.0012562001944,SÜMBÜL EFENDİ,FATİH
Yeşil Direk Parkı,28.9720689763865,41.013083797352,SURURİ,FATİH
Hanedan Çocuk Parkı,28.9532445579014,41.0226346677028,YAVUZ SULTAN SELİM,FATİH
Seyyid Ömer Kaykay ve Bisiklet Pisti,28.9346179410695,41.0092503651754,SEYYİD ÖMER,FATİH
Cerrahpaşa Parkı,28.9401852239412,41.0067294890405,CERRAHPAŞA,FATİH
Topkapı Kale İçi Parkı,28.9286262446433,41.0206104034121,TOPKAPI,FATİH
İbrahim Ağa Mahalle Parkı,28.9198671529752,41.0298502655163,ORTA,BAYRAMPAŞA
Bahriye Üçok Parkı,28.9118044562338,40.9976435504764,TELSİZ,ZEYTİNBURNU
Yahya Kemal Parkı,28.9068621909632,41.0390923483614,ALTINTEPSİ,BAYRAMPAŞA
Uğur Mumcu Parkı,28.908842416888,40.986566856933,KAZLIÇEŞME,ZEYTİNBURNU
Mevlana Parkı,28.9047136608743,41.0067849782132,SEYİTNİZAM,ZEYTİNBURNU
Mehmet Tahan Parkı,28.8963090024461,40.985533443095,SÜMER,ZEYTİNBURNU
Cezaevi Yolu Mah. Parkı,28.9037744516876,41.0414215661588,İSMET PAŞA,BAYRAMPAŞA
Silivrikapı Parkı,28.9245971080426,41.0059903276877,SİLİVRİKAPI,FATİH
58. Sok. Mah. Parkı,28.8978380932421,41.0564766220741,KARTALTEPE,BAYRAMPAŞA
Dostluk Parkı,29.0807258383372,41.0163840198878,BULGURLU,ÜSKÜDAR
Elvan Parkı,29.0704924788049,41.0457061622215,MEHMET AKİF ERSOY,ÜSKÜDAR
Cumhuriyet Parkı,29.0324101664841,41.0171940119325,BARBAROS,ÜSKÜDAR
Şenol Güneş Parkı,29.0597968497264,41.0380155618715,KİRAZLITEPE,ÜSKÜDAR
Burhaniye Parkı,29.0541974087328,41.0348371823175,KÜPLÜCE,ÜSKÜDAR
Valievleri Parkı,29.0540622477806,41.0054228589436,ACIBADEM,ÜSKÜDAR
Malazgirt Parkı,29.2404651126483,41.0318319940935,EKŞİOĞLU,ÇEKMEKÖY
Erguvan Parkı,29.235997970813,41.0420153591577,ALEMDAĞ,ÇEKMEKÖY
Şehit Şahinbey Parkı,29.1932237675117,41.022842537563,HAMİDİYE,ÇEKMEKÖY
Mehmet Çavuş Yıldız Parkı,28.8324443772604,41.1325962007697,ESKİ HABİPLER,SULTANGAZİ
Mevlana Parkı,28.8737228901884,41.0886551348838,50. YIL,SULTANGAZİ
50. Yıl Parkı,28.8689001161561,41.0914988489851,50. YIL,SULTANGAZİ
Şehit Ahmet Tepeli Parkı,28.8657404214602,41.1040577543259,UĞUR MUMCU,SULTANGAZİ
Ulubatlı Hasan Parkı,28.8693684160731,41.1052090235316,UĞUR MUMCU,SULTANGAZİ
Hasan Hüseyin Arslan Parkı,29.0065642665053,41.0527270820267,DİKİLİTAŞ,BEŞİKTAŞ
İBB Abdülvedüt Parkı,28.938181984734,41.0412819211735,DEFTERDAR,EYÜPSULTAN
Gazi Yunus Parkı,29.0890477414394,41.1487033794909,ORTAÇEŞME,BEYKOZ
75. Yıl Parkı,28.6815906882454,41.0422234111831,YENİKENT,ESENYURT
Ahmet Sarıoğlu Parkı,28.9023785263993,41.0502526859527,MURATPAŞA,BAYRAMPAŞA
Osman Zeki Bayraktar Parkı,28.907313447394,41.002759675666,BEŞTELSİZ,ZEYTİNBURNU
Nuriosmaniye Yeşil Alanları,28.9726787695895,41.0102216995388,MOLLA FENARİ,FATİH
Çocuk Parkı,28.954277887006,41.0630706956192,MEHMET AKİF ERSOY,KAĞITHANE
Cehar Dudayev Parkı,28.9455648631832,41.049580067109,SÜTLÜCE,BEYOĞLU
Sivas Parkı,28.95508225998,41.0527416915053,FETİHTEPE,BEYOĞLU
Çıksalın Parkı,28.9517362348533,41.0487461838967,HALICIOĞLU,BEYOĞLU
Park,28.8557155092213,40.9806347744049,ATAKÖY 2-5-6. KISIM,BAKIRKÖY
Halıcıoğlu Parkı,28.944818364899,41.0446909878762,PİRİPAŞA,BEYOĞLU
Seferikoz Parkı,28.9600988510379,41.0355285063551,KULAKSIZ,BEYOĞLU
Park,28.7543951952624,41.0974956659273,GÜVERCİNTEPE,BAŞAKŞEHİR
2. Cad. Parkı,28.8763696167847,41.0478370219624,KAZIM KARABEKİR,ESENLER
Kuva-i Milliye Parkı,28.5841357560042,41.0207622854819,FATİH,BÜYÜKÇEKMECE
Aliya İzzet Begoviç Parkı,28.8700462423175,41.0242531678936,MERKEZ,GÜNGÖREN
Kayısı Bahçesi,28.8275379227576,41.0423173446882,GÜNEŞLİ,BAĞCILAR
Park,29.2184587134172,41.0216147534962,KİRAZLIDERE,ÇEKMEKÖY
Dutluk Parkı,29.2242858039344,41.0318794459348,SULTANÇİFTLİĞİ,ÇEKMEKÖY
Gökkuşağı Parkı,29.2420732029389,41.051245928838,ÇATALMEŞE,ÇEKMEKÖY
Park,29.2199866995679,41.0219661610553,KİRAZLIDERE,ÇEKMEKÖY
Subaşı Park,28.4550895419325,41.222410090115,SUBAŞI,ÇATALCA
Yalıköy Parkı-2,28.3021446954141,41.483185923509,YALIKÖY,ÇATALCA
Ballı Parkı,29.0160479918144,41.0768967471178,LEVENT,BEŞİKTAŞ
Karlıdere Parkı,29.080518837386,41.0146314212858,CUMHURİYET,ÜSKÜDAR
Şifa Parkı,29.0847404691844,41.0125289251409,CUMHURİYET,ÜSKÜDAR
Hüdayi Parkı,29.0681822839218,41.0126722047722,KÜÇÜKÇAMLICA,ÜSKÜDAR
Ali İhsan Gül Parkı,29.0839996454089,41.0164215926866,BULGURLU,ÜSKÜDAR
Kerpiçhane Parkı,29.0295654080821,41.0259830278154,SELAMİ ALİ,ÜSKÜDAR
İcadiye Parkı,29.0350229637372,41.0296244435528,İCADİYE,ÜSKÜDAR
Ünalan Parkı,29.0651609094959,40.9977854411574,ÜNALAN,ÜSKÜDAR
Arabacılar Parkı,29.0444511454318,41.0435599052233,BEYLERBEYİ,ÜSKÜDAR
Gülistan Parkı,29.0483382972471,41.0104884640859,ACIBADEM,ÜSKÜDAR
Şehit Turan Çamur Parkı,29.2347324493808,41.0327362069678,EKŞİOĞLU,ÇEKMEKÖY
Genç Osman Parkı,29.2360167784784,41.0462284251154,ALEMDAĞ,ÇEKMEKÖY
Yunus Erenoğlu Parkı,29.2370135021111,41.0500445406053,ALEMDAĞ,ÇEKMEKÖY
İspinoz Parkı,29.2330801869626,41.0414002604749,ALEMDAĞ,ÇEKMEKÖY
Mevlana Parkı,29.0906396677929,41.0272921089413,ATATÜRK,ÜMRANİYE
Demokrasi Kahramanları Parkı,29.0133950232737,41.0904753052552,KONAKLAR,BEŞİKTAŞ
Ulus Parkı,29.0324132576171,41.0638329770535,KURUÇEŞME,BEŞİKTAŞ
Sedir Parkı,28.9016025202606,41.0999334248062,75. YIL,SULTANGAZİ
Şehit Öğr. Hüseyin Ağırman Parkı,29.1574115663483,40.9906957441901,MEVLANA,ATAŞEHİR
Üstzeren Parkı,29.021948170693,41.0790048268944,LEVENT,BEŞİKTAŞ
İskenderpaşa Parkı,29.0700930066663,41.096940299026,KANLICA,BEYKOZ
50. Yıl Parkı,28.9558691942267,41.0148860388608,KALENDERHANE,FATİH
Çayıroğlu Parkı,28.9751270208817,41.0029936947846,KÜÇÜK AYASOFYA,FATİH
Kumkapı İstasyon Parkı,28.9629277291466,41.0031688907468,MUHSİNE HATUN,FATİH
Fatih Sultan Mehmet Parkı,28.9370504177651,41.0303388036003,DERVİŞ ALİ,FATİH
Yedikule Parkı,28.9238052206873,40.9939992947249,YEDİKULE,FATİH
Yedikule Sur Parkı,28.9206248238697,40.9931725508843,KAZLIÇEŞME,ZEYTİNBURNU
Karagümrük Meydan Parkı,28.9402650228144,41.0248083723663,HIRKA-İ ŞERİF,FATİH
Fatih Anıt Parkı,28.9544078341159,41.0157885597531,ZEYREK,FATİH
Şehit Ahmet Kara Parkı,28.9557597610143,41.0165935883245,ZEYREK,FATİH
Şair Nabi Parkı,28.9537219569041,41.024018800044,YAVUZ SULTAN SELİM,FATİH
Sanatkarlar Parkı,28.9838548943549,41.0288848820538,KILIÇALİ PAŞA,BEYOĞLU
Şehitler Parkı,28.9509679676835,41.0102816251595,İSKENDERPAŞA,FATİH
İMÇ Yeşil Alanlar,28.9589906185364,41.0190431685843,HACI KADIN,FATİH
Kocamustafapaşa Yeşil Alanlar,28.9310194324238,41.0053341617253,SİLİVRİKAPI,FATİH
Sirkeci Parkı,28.9768158610809,41.0158627156992,HOCAPAŞA,FATİH
Park,28.9529494971095,41.0117113192038,İSKENDERPAŞA,FATİH
Dr. Ziya Gün Parkı,28.9129658130054,40.9958935918388,TELSİZ,ZEYTİNBURNU
Kazım Karabekir Parkı,28.8968271511699,41.0350624756095,TERAZİDERE,BAYRAMPAŞA
Park,28.9005550157269,41.0155213777281,MALTEPE,ZEYTİNBURNU
